time_s,boat_speed,heading_deg,wind_speed,wind_angle_deg,foil_height_m,foil_rake_deg,daggerboard_depth_m,vmg,pitch_deg,roll_deg
0.0,36.565810115340646,90.06668374797658,11.704482495425713,30.8076268473762,0.8331714315615668,3.9829451855689646,1.7518896296471687,31.248863164404767,2.0293477488208462,1.0342360357054357
0.05,37.18652623989227,90.21444681254016,12.189780050026952,30.5747409007469,0.8529535923816075,4.07734632307648,1.7681829312220434,32.46571734737859,2.0019859609310755,0.993222635328915
0.1,36.46933707719183,90.10983714550484,11.949552152515297,30.34929952216845,0.8973352940576398,3.900389925056006,1.7905477657682738,31.964272532366444,2.151470259925277,1.1136433944105952
0.15,36.80039102235529,89.93672352240311,12.1104335566376,30.301659551031882,0.8725747738370456,3.9869867970604616,1.8593406408213924,31.488929191502532,2.0328077467867525,1.0320986987127267
0.2,36.87754564319018,90.0120239100587,11.911029681790069,29.576878521068824,0.9240234822455281,4.086012261763348,1.7932090525316513,32.11174109155851,2.094946061748628,1.0688089228015865
0.25,37.21196436390715,89.92495600513247,12.09955638491692,29.877265357952346,0.8960190744430275,4.074037857339205,1.807054739971167,32.01204376979665,1.9276478805733575,1.1387902556972844
0.3,36.67989277710717,89.92892864486652,11.840157185946653,30.806197236195352,0.8997503332527483,3.981410485777908,1.8016407199270046,31.43612781902155,2.075879551823228,1.145686514908316
0.35,37.61094085970306,90.04607955500846,12.026222870599543,30.443435451524625,0.9232067807143245,4.0241232056120575,1.8193529591232493,32.11370998735718,2.135976542512433,1.002519396518333
0.4,37.2030483361751,90.04837592081826,12.18295321186273,31.694365446243655,0.906834077270157,3.96029931457015,1.7851408074409596,31.585180042934947,2.2086167382129624,1.1607700401915788
0.45,37.2221974742665,90.39925289729608,12.053380702145189,30.215617201390497,0.9158238556887969,4.132022102663781,1.8211062978892325,32.23677460209238,2.2167164710005736,1.1583578575804874
0.5,37.19160731176019,89.9450694784393,11.932617305073364,28.818573071236763,0.8986075862977568,4.032924068917183,1.8290391915363717,32.63141821833297,2.270335555361388,1.031770706241613
0.55,37.08093653271201,90.2766292270323,11.77999089285898,30.320209856478243,0.8949663075170917,4.138032696918565,1.8472803376332756,31.6688409626823,2.1664447362571653,1.1001090976232042
0.6,37.089222074299435,89.99692410916452,12.098291382792251,30.80161171313394,0.8984241263789078,4.116140608977216,1.7921411677580965,31.348478605138308,2.1844820239222735,1.2913284529634146
0.65,37.871821394632995,90.49955588288661,12.147193689902013,30.927658334280537,0.9064399668221484,4.0233751213666515,1.846228147505602,32.017257359155145,2.264348444739887,1.260322810221756
0.7,37.54369551526974,90.40376565357593,12.001072630015477,30.759320636124674,0.891210148313733,4.072286230988218,1.877848912992338,32.57592865879111,2.2016653668979167,1.2124168960811776
0.75,37.43966550660687,90.66094890398593,11.878142800824502,30.18746936437916,0.8705508608232745,4.124294954174446,1.8459989080701724,32.318834993325396,2.2512613053946495,1.3420933799402102
0.8,37.93933229204623,90.5099658629944,12.210631119016634,31.864638425289506,0.8956630731120262,4.117930277977297,1.8444546010681626,32.24260293971399,2.3054982954484804,1.1448713119514815
0.85,37.50692825148248,90.15144015113174,12.700059227249866,30.403265418785367,0.8827645071475028,4.18682034962611,1.7537518206657723,32.72250540327567,2.1587045193683414,1.410796311083877
0.9,37.831921713618556,90.43339293301365,12.008441303082442,31.419685383594043,0.8766888206176,4.168656357465331,1.8668056616805344,32.03149867588943,2.2087489966425875,1.271249281023388
0.95,37.69793587814537,90.29495069925775,12.172760463185767,30.772157448141133,0.8683518864788787,4.128090427140118,1.8853909803056303,32.4990934017171,2.3857352101003126,1.4529061948573978
1.0,37.421402954927025,90.34443714245143,12.18736150961734,30.186400050557236,0.8444688904966052,4.155034433349898,1.8664071032299427,32.1770023148015,2.3124667002732586,1.317059798308762
1.05,37.84267995085549,90.24639271943036,11.456068366480658,32.068925910708565,0.8891975134257054,4.0789756888188355,1.846865828808717,32.11869967046098,2.4470971443847063,1.3240719228527877
1.1,37.26815509350301,90.44365203647058,12.133170257476346,29.3712945411741,0.8617191672496239,4.091265104966062,1.8579633563871112,31.999578893785245,2.364811093923665,1.4040830399502475
1.15,37.992782859330966,90.56431825786136,11.93031876945306,30.585688800689535,0.8728114851344063,4.166759099191881,1.9236694883735275,32.60619939656105,2.3374265846799394,1.3751675074677974
1.2,37.629145135991976,90.61703254151374,12.457846772638181,31.537934298657284,0.8830692946737992,4.156802575204243,1.815472846396479,32.05478754481245,2.486201888466352,1.4929194076215921
1.25,38.00872187816048,91.19168508181184,12.052853758101362,31.036984548171915,0.8799843109862573,4.078245265099467,1.8260962276476664,32.59699989994988,2.4323612637693763,1.4898693019439637
1.3,38.3468086350702,90.5732278116803,11.926301124981162,31.864971496549344,0.8695484516337206,4.143716174185686,1.872087497382567,32.203355057530665,2.4986029432612282,1.4125073117814388
1.35,38.13669148269279,90.65728169859662,12.070682734578277,31.321245614820967,0.8687131338520857,4.107352198392228,1.8486215391606684,32.51760479792948,2.43114811616179,1.439166338750929
1.4,37.79250144918003,90.63770772669396,12.171640940219488,31.12584438123978,0.8737687700474931,4.1270998736148945,1.7786663741956175,32.57954417122988,2.4364702321304756,1.4680652935911638
1.45,37.980310086311555,90.62175277196327,11.994740083897632,33.009502554629115,0.882918777826173,4.240265342808723,1.8506804872255183,31.82786821064884,2.489864024345056,1.6198123230416308
1.5,37.930368471654226,90.63380578584429,12.12602597776952,31.393231982308183,0.8805631770796716,4.115441318022662,1.8558479419181733,32.59825808079007,2.468407737623246,1.4920860727580514
1.55,37.60654275920428,90.74387435332117,11.805279415283307,31.488590000850195,0.868940250888848,4.13785470541918,1.8194508018829092,32.23938792324239,2.5315224236480556,1.5900802605415572
1.6,37.735072890462476,90.70619413356363,12.092059683514345,30.892540495523836,0.8801804679892379,4.214443098302627,1.8598175312380039,32.445653211772836,2.4803294872911863,1.5172353252061894
1.65,38.22936738688433,90.95513071671799,12.346868649270565,31.179109279388225,0.8788022356021512,4.191302497929482,1.8573566963550607,32.61485753019918,2.603243222586817,1.4652372033329821
1.7,38.50922080982949,90.90456658427671,12.650092489471895,32.20966488301077,0.8814767249358194,4.202152039095343,1.798239906006185,32.60385070933453,2.6521397258792523,1.4124796959031876
1.75,37.67172750012829,90.61150661034836,12.339003551243362,32.20146950593485,0.8732089290710812,4.113782332699471,1.8683327622413806,31.64043884861535,2.6413016006363614,1.5735649975038137
1.8,38.26276056088428,90.8487934037256,12.23504560691946,31.85953659405787,0.8844727103376007,4.201673707053484,1.9182874497681486,32.66985376512091,2.516446615829234,1.604611641230695
1.85,38.55404748450419,90.94619332709651,12.467823469317498,31.419445353952632,0.8663628371225252,4.187022505791922,1.9078182560105656,32.98550529137474,2.729667626917639,1.59609464823092
1.9,38.44154532617454,90.82910109657391,12.431263757627605,32.44222970627521,0.870456778380649,4.166925317929778,1.8239544597333337,32.747356601110695,2.5051743325095868,1.6892545303868955
1.95,38.13317059763574,90.86319501573922,12.597119449064197,30.820019964245173,0.855307954603994,4.186665500625529,1.8198106463589139,33.32549077463216,2.674370842748208,1.6546936398295229
2.0,38.83352938327616,90.91952854160641,12.456526059929601,31.825439042300992,0.8424025259951695,4.207601432015761,1.862253235753933,33.21348007087744,2.6784152183110086,1.752598037139584
2.05,38.017431857765764,91.11335892649049,12.161091426521455,31.939436763904723,0.8329547271027604,4.278881536921721,1.87028895203914,32.4086121781418,2.743635069350341,1.6650337265539177
2.1,38.717375380837574,91.03209512662978,12.259675173242114,31.575130244080903,0.8378833227403997,4.34468340808977,1.8237138659074221,33.036207184424725,2.6411036092118594,1.5507472797415547
2.15,39.07495460080382,90.8828245218051,12.244547936023416,32.32608971824139,0.842149215920439,4.247061216592852,1.8429008047206787,33.23847366608177,2.6665511652223373,1.7219364311299352
2.2,37.862705802569,91.02499478976233,12.280172447415723,31.802818960378595,0.8474005801721901,4.332083824120512,1.9067163416251587,32.532927309779396,2.8106714412406024,1.5542886380326468
2.25,38.681781840575844,91.3576093585856,12.259172738070854,31.759186180361212,0.8282920993590385,4.257694681012698,1.8750496363672549,32.81998271977301,2.8201087592688396,1.6352268083262012
2.3,38.67376125916403,90.8535402523026,12.018289587479892,33.635146512045274,0.8215086153533678,4.170052434473023,1.9000976268187344,31.877228190328978,2.659169263103687,1.5496408771365187
2.35,38.5950786320393,91.26491680977503,11.692682732923394,32.943387012565914,0.8218780825583629,4.264900549908351,1.8697838230391155,32.043185936051906,2.7285450993185005,1.7333242432575346
2.4,38.376317212347296,91.07119751610708,12.05525450250666,33.315548790393606,0.8456476671049279,4.341176285421598,1.9026767872355606,32.32613726543902,2.6984967271067517,1.7792815780159437
2.45,38.48234423278663,92.04735780655282,11.721631712722377,32.56267719030899,0.8339475389559653,4.353192096711665,1.857878123490511,32.554328467684705,2.563764789679781,1.5610339248125054
2.5,38.273485982506,91.32893482896536,12.249914148187704,33.25319677111404,0.8309847682550408,4.225637730184658,1.859676803323652,32.145524173155486,2.8711579706268813,1.6035889763090536
2.55,38.829264773823574,91.21392713734281,12.238554835433888,33.17560272076063,0.8525969127510831,4.4118860042839625,1.8482865350442674,32.07246833788011,2.737445064762977,1.6226429325597578
2.6,38.897068081885045,91.19851760075754,11.823207600488772,33.52916124189669,0.8347718677242957,4.24422683041685,1.8209175790294851,32.28275470943406,2.80360483244331,1.530707654680686
2.65,38.664444444164936,90.88285052992732,12.418895315436979,34.3887219246743,0.8610022027099042,4.2496476814787885,1.8675738019022694,31.510726546413128,2.8273611899093805,1.6759846780727676
2.7,38.619377685817255,91.14850289385679,12.46820650450194,32.62256389079705,0.8685351426987751,4.26674083256424,1.8404738165106533,32.23614146387889,2.7126557447992843,1.6666468867254352
2.75,38.760092329913384,91.77732722788564,12.280219023773556,33.01332454225525,0.8775333722923134,4.386287292418602,1.8682537581021301,32.358327977106185,2.895578490092675,1.5789192273411143
2.8,39.05108649691457,91.40504172459248,12.67782568334757,32.846445441517474,0.8752751138765694,4.330338895123618,1.887856601595358,32.634476130786794,2.7776136421871436,1.5089564665240915
2.85,39.1205597372795,91.27300714708197,12.73358373037046,30.471691307923464,0.9119426200222468,4.364872499319131,1.890154368865986,34.12401242742973,2.7216877071993335,1.5737497410006709
2.9,38.90439367464039,91.36345578849924,11.969037725322602,32.0055164981195,0.9305446988800593,4.187862284571743,1.898103608982685,32.66772955011242,2.871397225919159,1.7140514205337833
2.95,39.13653951337712,91.39984239970939,12.534271205597182,33.046801353236965,0.902905145726083,4.318696978600805,1.876089178282706,32.64814027662595,2.8643156762420596,1.5712750985646202
3.0,38.657773269593996,91.18459228437939,12.38999184500744,33.52739169078139,0.929263833169321,4.32007342866609,1.887496367854781,32.03555885984979,2.8138003488593135,1.6939858395672565
3.05,38.20107111673521,91.46164423627158,12.38894565514707,32.73085498433703,0.942929563213044,4.371947844135403,1.9250069887292098,32.15567604075589,2.8582689261943712,1.7119597682584022
3.1,39.41590967462331,91.5816474147176,12.522647589942641,33.97896931069472,0.968875075665546,4.30899862275611,1.8874048540822186,32.87378215837927,3.0028880529089155,1.748785879272354
3.15,39.62131329502399,91.12891564138783,12.113720074844009,34.132819219065084,0.9404721686509988,4.410276926103411,1.894197481009392,32.592279886022254,2.928421805470483,1.6854534318294054
3.2,38.68585420923853,91.44915224059804,12.149981854309566,32.99458296116881,0.9369668834065334,4.305709926309432,1.8218509444591058,32.021393148456404,2.878095439586514,1.7075648958187242
3.25,38.961209925480276,90.87484136776048,12.096023685518544,34.330553731267024,0.950073686454575,4.269382035936998,1.863267637236049,32.0660266815046,2.8525798480074007,1.8059693259917617
3.3,39.32941132700865,91.14962669578506,12.11874046350784,34.609564012191576,0.9749360357232613,4.259759105371281,1.93009949682227,32.473002942866714,3.0320208891913594,1.6375332579105144
3.35,39.626531798307255,91.77657393209319,12.287646287332034,33.75789199900169,0.9495403216474562,4.433088818142725,1.8730780321824616,32.668446735912866,2.853770049384795,1.6836080815571544
3.4,39.46866680344714,91.89429975443967,11.953764163937482,32.79522809730545,0.9492534773322696,4.408245368164839,1.8681358515224589,33.42773561220136,2.735572835935115,1.7804142379182881
3.45,39.741662723266884,92.06861045845862,12.059809291293776,34.55961650857543,0.9639971749105175,4.323432807324683,1.9303827056411822,32.46929528024068,2.9916303963765456,1.580763132284804
3.5,39.41691480789507,91.33792697951816,12.470352146307002,33.46630442373722,0.911368952062455,4.437435153524873,1.8663550110960552,32.71818250480338,2.856442179155304,1.7206592847200435
3.55,39.568188194693384,91.65025662414307,12.312571184204531,33.36578754594982,0.9057510711378987,4.367931242959837,1.9337617738522113,32.93211998949294,2.724357077044495,1.456353435823075
3.6,39.62663722902935,91.61368885318875,12.430613085310911,33.760670246974534,0.9382018966420183,4.375284857411597,1.9026026468548907,33.43491172435581,2.787421341508892,1.5302652972863597
3.65,39.2258997583582,91.97225950741428,11.867172837572921,33.35173643493416,0.9313661099235946,4.301855709574809,1.88820439990279,32.96720306394862,2.7916479033069472,1.5254314364881394
3.7,39.886615842663595,91.81811712077544,12.148333371546215,34.52770923086563,0.8997183662575023,4.359261039616619,1.847114680251179,32.95241158073602,2.7251755921904164,1.6315752274138398
3.75,39.73286972280519,91.78394165037511,12.210164602852547,34.36984114067738,0.9186474374758347,4.401815444412953,1.9490917760675879,32.53826921937119,2.8404453083374412,1.6394399486604503
3.8,39.921836693386034,91.93166498708958,12.361726884156367,34.727696934743804,0.9087083340566184,4.411646223633418,1.8566574252201933,32.52593311945627,2.8529854158402443,1.4482533118318999
3.85,39.4437199655642,91.70261832140356,12.211586581457428,34.32962220816089,0.9079357921474415,4.371472314395097,1.8754313426558626,32.39492140367868,3.030737785189828,1.7747096385285113
3.9,40.05622940361146,92.06712337264314,12.596040518572531,33.41521288997065,0.8929734686545651,4.466023001188352,1.9369406562127256,33.84569290831392,2.8921528989227103,1.787568495631923
3.95,39.30905198876086,91.7770849339696,12.353003236876113,33.90773482161563,0.8959013721974928,4.496080073816389,1.8777093841619354,32.95877302982661,2.8510956530275773,1.7118084439059995
4.0,39.84009323721751,92.14449523199033,12.376374074992338,34.68013219729959,0.8900391282038648,4.369747595737496,1.9311893015720873,32.80050378152055,2.8824363932684034,1.5856484865673872
4.05,38.83786585938039,91.94907221789153,12.380068915574148,33.83028447098295,0.9016686237285175,4.444136626058681,1.9162246589081215,32.08270158751094,2.909215819795637,1.6310504123654248
4.1,39.46104336370032,91.98360530536526,12.55833768154014,36.20678900908926,0.898785366004262,4.336476842657068,1.9105031085925417,31.39075666816367,2.9703417585279475,1.5267368733750335
4.15,40.0154157211103,91.68032405720517,12.2680214282326,34.040746574112,0.9232314149789281,4.4529718994552585,1.8883066828907307,33.04282221712842,2.992964723936241,1.5278277367320514
4.2,39.73698008791061,91.60734288233715,12.671096520995595,33.84732036381044,0.911222470020866,4.377015538967205,1.9014361985283457,33.136856320489684,2.7284539502295315,1.501210013336626
4.25,39.938467944533286,91.62405065944887,12.509947806499484,35.109342887232984,0.8853268295812194,4.428008634717312,1.9306409556557198,32.815385745331355,2.763215049870935,1.5760124150093746
4.3,39.332513743771685,92.1387113360728,12.438035535531162,34.875727412919545,0.9106525095727326,4.450945612896847,1.8943909220822817,32.369290053185196,2.875493954568073,1.4985502799167372
4.35,40.44071824116167,91.53270116174215,12.41448780589737,34.37984369553393,0.9238450459714732,4.430762857945304,1.9438027966638938,33.197117185871576,3.0259924117342893,1.4917595284732181
4.4,40.17286214572189,92.39401845185866,12.53888902211655,34.28518085192062,0.909916235704781,4.509311250582857,1.93335410821327,33.32426621906913,2.8280983274780644,1.6598778497291673
4.45,40.01882910969717,92.0142520906833,12.667342625371926,34.79174216122342,0.9187634951998593,4.407471756421276,1.9436299168104874,32.82486553153709,2.9492360352075924,1.4777310788167037
4.5,40.19390974765237,91.79462464536023,12.654456727613335,35.124777994498835,0.9032408650638474,4.429204435980867,1.9356070284950484,33.10027032224611,2.812027337107318,1.5408941982814592
4.55,40.156121089395825,92.22080668878354,12.51671809175826,35.12039533483103,0.9099662021505887,4.478908895551378,1.9467415896195,32.91149236198903,2.805900644793042,1.510777719001793
4.6,40.58776643988301,91.86595287801278,12.646461005375158,34.42179668905441,0.8867075664888407,4.461771533146208,1.9425292977761264,33.67938080860019,2.8236920536392476,1.4295604218868305
4.65,40.156384657640274,92.19418796093652,12.461599184028682,34.98163739551964,0.9038793544461744,4.482112472696519,1.9570521285925544,32.987753141387145,2.9487211508253024,1.4183441681501432
4.7,39.67693958415535,92.14451231579099,12.749703311700557,35.31627392619884,0.8725633258149641,4.4587989393327145,1.9448755852479023,32.25555937371619,2.792237466740006,1.5296212871072623
4.75,40.04081988738867,92.51687583126414,12.434583117900463,35.30706674496481,0.900283031119165,4.427829865071795,1.9444505677574733,32.978315534675716,2.8290957783231665,1.3817882483453738
4.8,40.46705260727189,92.46892615878937,11.926827540201465,32.65710124632062,0.860342174211678,4.516549127777345,1.9086514940471249,33.805454453045826,2.841869835079211,1.4631985557735205
4.85,40.46247105992684,92.50136780868867,12.784696359485523,34.240169355346,0.8476372048300914,4.486105579241354,1.8857066119601418,33.622201081394614,2.880653649277749,1.3601295790484798
4.9,40.07300936925593,92.19130742138424,12.481501995318098,34.36593171527436,0.8749625302230565,4.537186895276858,1.93993338385555,32.966485125671085,2.80357921076794,1.3492532460934474
4.95,40.372489290572446,92.62176175312308,12.166029364627672,34.793358950720766,0.8612970028417682,4.56563015887491,1.9682230252407913,33.06203395950204,2.861313102203589,1.4828492891793916
5.0,40.2904245830769,92.33093391235717,12.41375205575299,35.12536051394513,0.8606820518907742,4.471314767764876,1.913020540301757,33.02425200851233,2.916340341089459,1.2086952761089758
5.05,40.44240196064182,92.39883862556522,12.246768565485825,35.6902803160474,0.8615074815564636,4.452189935565967,1.8945162562207407,32.71480348607685,2.834876078870784,1.2751044812097196
5.1,39.90271592706505,92.49956603913486,12.997350222062432,35.52279384777245,0.8539381210814628,4.47205324577714,1.9267750036400764,32.216799782838194,2.731492610365162,1.2672134384155163
5.15,40.06412445250488,92.48255517862336,12.601590210331523,35.0465456628843,0.8428793262133951,4.463935018393839,1.9550036299033702,32.56453416183254,2.740251291786794,1.3326258893359741
5.2,40.49594655737434,92.12281550925017,12.089410337123779,35.19646970631071,0.8573245806095069,4.389572393185088,1.9709194461177522,32.80625914786277,2.7630136772831717,1.2272285191155352
5.25,40.348910239917494,92.61757257646401,12.622575408253647,36.45636961250202,0.8614899611627945,4.6029477483188055,1.9369398299895455,32.461214140902584,2.7085985160980695,1.2741575760426493
5.3,40.511562559544615,92.10963131748639,12.390913021587497,34.840623250164995,0.8675250586324375,4.534706384860447,1.9125444521694277,33.33154232313601,2.6290379843388947,1.3022028184715684
5.35,41.23130021698285,92.62205105388234,12.974396146094302,35.527128232180466,0.8914694577414662,4.649001140693779,1.946982806781384,33.5354753010799,2.6323125537877092,1.3885440197413221
5.4,40.29304314751651,92.51698318188353,12.236527429382305,36.454117345392326,0.8647796813002071,4.484590543065818,1.9702316203165282,32.013732035980894,2.6506390429931144,1.2910922284262083
5.45,40.43216529101081,92.574722235848,11.942437723323874,35.64455014533217,0.8826565015243967,4.554182807953729,1.9494634450298673,32.89262034701797,2.5258857283927356,1.08420042700959
5.5,40.32755626636679,92.32001024163338,12.525284914940318,34.01592929281257,0.8977460597388471,4.538690348757064,1.9823488290504343,33.66952135058539,2.9034977275811054,1.317038770114767
5.55,40.302492104542715,92.84032675934662,12.42640317692762,35.75267752528359,0.895319850108621,4.52163428892533,1.9382270683206493,32.418125885142636,2.726467709107857,1.160645388653914
5.6,40.510240383868414,92.5908936831143,12.413625875788215,35.262766828538396,0.896071389498154,4.585213168039407,1.980351763171089,32.848903885213005,2.5996280041490025,1.0645913719791829
5.65,39.954405897366705,92.85115596467983,11.986960445754612,35.49828025416505,0.914012115067132,4.531459772724939,2.004303234569929,32.76293157563673,2.5718948200246023,1.1429645446213113
5.7,39.91530377914019,92.49882913605627,12.633483596953475,36.35654329365719,0.9437867732319082,4.529475378878689,1.9268083787876147,32.10404832209904,2.71610798215926,1.0274717281180599
5.75,41.20357663246925,92.52549810042439,12.949466016645264,35.99273632923297,0.9360220778971567,4.545937168193243,1.9316629533076455,33.614265821190386,2.4912840510722694,1.0568333258531417
5.8,40.49998051608891,92.73543196931547,12.058403943765368,35.52230662322052,0.9549743559989375,4.4099750123793475,1.9780454509248815,32.878375710517965,2.5079080368004116,0.9973245426352355
5.85,41.13505061261221,92.98654594175773,12.832841919033656,36.374459183771656,0.9451575217256861,4.500207164951713,2.052848513711478,32.75622575683098,2.6585818944038095,1.012356637226539
5.9,40.706154179107315,92.45176714965302,12.402489724483454,36.097506484202526,0.9649990025192019,4.501692826508693,1.9758950698284306,32.88256467141909,2.554665854549257,0.8337468506699343
5.95,40.91990861858173,92.65085474355729,13.136435796366836,35.90901080605504,0.9550534157319246,4.642068646701306,1.96101717955954,33.13090399903169,2.6082383763330625,1.1167649368003887
6.0,41.000782741362784,92.69199789795402,12.662683131784629,36.08855809963856,0.9557240226605846,4.583030004745305,2.0019112834491595,33.209694368784454,2.539593674165265,1.0007893691953778
6.05,40.99984112406742,92.77048845170475,12.511113704007615,36.097312118437024,0.9681139166446235,4.596825773556982,1.9604935352246302,32.91389832327466,2.515530491817036,1.044727551793457
6.1,40.44494453681454,92.7492641910371,12.838878934960123,35.72458183002304,0.9666364577126022,4.590106698680784,1.916616955026559,32.718714680681124,2.4484317029459213,0.9907106124397348
6.15,41.254817169408796,93.13679405711281,12.698221388359975,35.68283222793455,0.9822606896614242,4.5449307728446335,1.9374177301837763,34.029581601241595,2.5227859906818644,0.9335414979398892
6.2,40.46077238650789,93.07260461306646,12.422903500563807,36.06360411540572,0.9409501725451302,4.653749167888077,2.0071623157013962,32.56691004961873,2.487404215457068,1.0308976188753627
6.25,40.96464158953556,92.93280600340682,12.753088925328221,35.41964332041044,0.9626475270658613,4.548419071064102,1.917668187789881,33.78839676660045,2.47056080581799,1.0094192198618086
6.3,41.71348114932532,93.15093538850293,12.452010621103746,35.24785200199305,0.9711235993082493,4.4808064505051375,1.9263799341399943,33.781051191602145,2.401376178705666,0.857408416067922
6.35,40.80741364205434,93.21837116918688,12.137142379689129,37.08099643318188,0.9623779777898017,4.600973212358573,1.9943145161818872,32.61559340472971,2.5151912353168746,0.9334757883797377
6.4,41.6089709833904,92.85002869416248,13.096360073048047,36.04369297485764,0.9350292473126672,4.634771095779824,1.9752472370885412,33.740090437199726,2.4078531775962917,0.822021975231387
6.45,40.79117546391302,92.8468908268428,12.505624842352228,36.23562501484513,0.9256678705888379,4.574580894648436,2.007876111230503,33.12549156070665,2.4335359778758034,0.79303307868485
6.5,41.123483180942294,93.20749503840015,12.4450879631083,36.198673095974414,0.9223317903933137,4.591553347062483,1.9410898261305385,33.18622500424934,2.274569215667849,0.8499578796762208
6.55,41.00974480222222,93.5707049367213,12.686575611218874,36.35019272238205,0.9270103327005476,4.627750992456374,1.951723792162997,32.86649339642832,2.2183535304642383,0.8032123123963268
6.6,41.03566575599223,92.52544326781958,12.216442108550092,36.39013756281355,0.9214405593836232,4.662554856560441,1.9642232040866459,33.06215597111868,2.3921894526721577,0.7699387288411154
6.65,40.6323015609438,92.96417850133975,12.272162990799748,36.46008375505716,0.9194860891539236,4.609597979863817,1.9385974554876313,32.30434795338759,2.2634916830199296,0.5990023588295853
6.7,40.68288453803858,93.32111476265354,12.490255637572764,35.89111483840356,0.9196855865789487,4.674760102547879,1.96946183588963,32.3254346164696,2.2306742119960203,0.6763771418638665
6.75,41.12885583853685,92.96667177046851,12.489870362397298,37.14689670328286,0.8972605159334646,4.596002164332404,1.9722274773971478,32.39223015521677,2.309435752255994,0.7355048680102726
6.8,40.53503789298598,93.3877238977205,12.642182518048035,36.04973971377492,0.8952063919353963,4.701964778353514,2.004095603099118,33.174034418135015,2.369012201054465,0.7665448969219321
6.85,40.86448575237817,93.25780809942128,12.909224364191955,37.29818608554245,0.8934586763129386,4.5028687126961096,1.9765282747764112,32.72172406872369,2.222000571135738,0.7465335418892088
6.9,41.290440332091904,92.92920613211133,12.514465230210575,35.26994855114691,0.8919732284679072,4.638502355248905,1.9680544178477444,34.18263457754012,2.2023414411688123,0.6330976636398221
6.95,40.938618821876936,93.13999464119911,12.760435372665887,35.90923601516955,0.9078325626359813,4.601942604287832,1.9956588037690237,33.28536122869344,2.243093723117527,0.6992011916558698
7.0,40.869334822417635,93.36189692212056,12.792183814954484,37.38579272148609,0.9135315580209602,4.593635090769592,2.014820526752662,32.10234961142413,2.2332672115585845,0.5452314200161793
7.05,40.7060140719287,93.08323419070295,12.375096726085308,36.62642012698108,0.9417146107807268,4.514107858244255,2.01366107233913,32.41792274176459,2.176075901108871,0.665044692855996
7.1,41.233853153751944,93.45908356622,12.707614764118064,36.2990450087722,0.9177762366575217,4.651393230276065,1.9917272848527012,33.31303929072427,2.0073748788224526,0.7632605301249438
7.15,41.00247151427886,93.41623308415275,12.419106545244059,37.0698302289954,0.911517475230894,4.579277956222568,1.9729291723941247,32.50584497063842,2.1951648885132937,0.580349387766076
7.2,41.31975154762341,93.29270916694725,12.925040508122027,36.11360312195562,0.9282127597360815,4.534338968594969,1.9709873158361828,33.14054326753933,2.052832153275998,0.5017660741329635
7.25,41.182192942455316,93.48110130906267,12.77703114927054,36.937356157541096,0.900510884686678,4.556352927946628,1.9468717929998895,32.64290721189679,2.2633795256220517,0.6534894659937299
7.3,41.86743942196337,93.32535176731028,12.67194265206973,35.370824637667965,0.9116753919250126,4.580496976990075,1.9887703120431253,33.947624595483184,2.0221086607081786,0.5448127584105611
7.35,41.01648377188895,93.48613616604219,12.337239258506266,36.64247529590114,0.9163675430107907,4.600794952495631,1.9868098571116914,32.42779002760587,2.0763781251955775,0.5411511072083337
7.4,40.602931080771036,93.21970375165706,12.705667926152502,36.54174184162037,0.9104373461449504,4.543434760630029,2.037547700060986,32.73027501928519,2.035531595177222,0.5705549274588767
7.45,41.271489988024136,93.8162621453124,12.489276215003914,37.41167829984283,0.9011854587642838,4.54348061395769,1.9956192110188513,32.60000008237665,2.0371212039340607,0.48705064848429613
7.5,41.33933059897279,93.4397342165941,12.86177852166742,37.68410771766247,0.8867972293981181,4.621566844592522,2.012191727675813,33.03781262442185,2.202895495382702,0.5577416241005018
7.55,41.35483451995101,93.80194242537549,12.659759908535042,36.50981137827247,0.8698605253907316,4.594244280338465,2.029741174454735,33.66085920994098,1.96314711655247,0.4304635647033519
7.6,40.72399713503381,94.05863393399505,12.490770256227167,38.27096466164423,0.877363792761709,4.712673613583809,1.9355534930548088,31.956044234761876,2.046685929762649,0.4143017207402439
7.65,41.78156716226887,93.94733753099965,12.92957881443374,36.76683967421,0.8661741348267221,4.575410100439716,1.9728514440105498,33.73709220393635,1.9464725094858368,0.4861629225633213
7.7,41.38518293933068,93.59024436819936,12.882865352437856,35.778455660720404,0.8762318984220338,4.643364821062554,1.985834412369002,33.85559816111343,1.8990100597932336,0.4864980827830673
7.75,41.31251770007321,93.65463204315625,12.558445708794501,35.58794773034197,0.8605075545208927,4.701564573893073,1.997195488019335,33.65068232099365,1.9695630333165235,0.45780360157341204
7.8,40.90965013292178,93.62987629961002,13.001403156210303,38.366958880666374,0.864513880333677,4.589970517814021,1.9604210212200777,32.03157216196604,1.9168742923769024,0.48239165362781844
7.85,41.533189620469116,93.73712721975616,12.640502226251497,37.2641533795228,0.8342039978578982,4.65888261206694,2.020686584259369,33.380504438254974,1.8565061409853516,0.4141560283967188
7.9,41.361340491922796,93.4891513479175,12.642371640974517,36.90784096656302,0.8636444140563397,4.619837827563222,2.022778990936835,33.241711213532156,1.7745716805209721,0.3563488755270331
7.95,41.88416973194451,93.2773941896115,12.75482439243427,36.87278219687334,0.8401600911473818,4.605782932633128,2.0114369419803295,33.46158450415354,1.8679274029727932,0.4361909816416013
8.0,41.238617709586826,93.80811403440389,12.539869455967972,36.6668967191766,0.8320193621514061,4.695655927337063,2.01744690106293,32.952591755100855,2.0884735118465043,0.26329721456261784
8.05,40.99023006927619,93.76565017421807,12.621969579611946,38.412945462817085,0.8363130989911032,4.546009222710611,1.964948985926417,32.12039630476284,1.786442323491239,0.38013762987146366
8.1,41.48481139750086,94.14287594239995,12.696762382841996,37.442392562004706,0.849179959562674,4.568585794712627,2.0323832658759793,33.17635655886526,1.829607039344282,0.4485888348142624
8.15,41.24640132591768,94.23123731002892,13.123533253142307,38.78877962816537,0.8757335660903047,4.501418313107861,1.9808018287908,32.3258225949133,1.7140618131027312,0.4085811258737464
8.2,41.70873132698259,93.49686290523108,13.120131763935984,37.43064867776262,0.8771484655859478,4.596702233906637,1.9433219115026374,32.97223887667636,2.0208127460869143,0.4474551122098214
8.25,41.098733321698774,93.62422414971138,12.684691705466022,35.95885490587954,0.8616819482983038,4.660511391643038,2.0040476596337813,33.23007753318562,1.6103044514056504,0.32949919122197985
8.3,41.55124747040573,94.05300729787491,13.156038811899933,38.22906404539273,0.885618204569181,4.588982842298482,2.0136055040527627,32.683695094035414,1.6600194766650018,0.32292039865101535
8.35,41.424903964683644,94.17210206374814,12.746986608278172,37.413914673164825,0.8924950999512566,4.650950839284985,1.9811383166049241,32.80010713403332,1.5383864420541258,0.2976912250416266
8.4,41.52700970085876,93.94407871644698,12.85721656488325,37.53917805205885,0.883811351506699,4.559671162193618,1.9526410289616065,32.90784648804893,1.7269970318423438,0.29036804228323404
8.45,41.404572992539556,93.95090536528917,12.9872375382174,38.835493455114865,0.9002951399523519,4.669163072925674,1.9683718487507453,32.006570795938536,1.6665554354921244,0.341489619837153
8.5,41.27598647234131,93.51937260776782,12.84350130793079,37.58708804819683,0.8964912600064698,4.596479656933953,1.9988009583059345,32.505556321984805,1.6711915820519228,0.39844499866860866
8.55,41.67391154346479,94.52789199100323,13.378601897598465,38.61769934054916,0.9195107263036568,4.575158147367905,1.9280295342503606,32.63530984677057,1.6187306297143014,0.31254207279150686
8.6,41.369881260211756,93.83825552062716,12.839809609715594,37.833440397390554,0.905033160412405,4.6968927488357775,2.035171098591542,32.735674766730774,1.7279688034903393,0.4370103200375371
8.65,41.53786508750257,94.16217785951879,12.483794842415397,37.342963339695444,0.9344121896851759,4.601313986321717,2.0349327986728745,32.9481223879805,1.696289707767392,0.3458180506611309
8.7,41.55803025671968,94.13211835848507,13.113632840238536,38.256670466477466,0.937474609108612,4.634486574371814,2.0001786864608153,33.18243771395366,1.6633805433660196,0.14219495585839834
8.75,40.78679702570835,93.85920473205952,12.688301011566338,37.513055695069575,0.9426826632278783,4.6078900019013265,2.037736015348171,32.31172067205053,1.337183318230087,0.35535339446222725
8.8,41.54487210605641,94.29985131631969,12.719663247308208,38.82510564740161,0.9444505251869896,4.640919403789932,2.0016847847264922,32.544653518516526,1.463716683434837,0.2629510892521405
8.85,41.878046232793814,94.4668034329455,12.051961351174633,38.66876714434123,0.9692842739251594,4.606728699520476,1.9731581690395668,32.769543186157605,1.529427752410856,0.30662467642715396
8.9,41.7654546766844,94.12962143129289,13.05438126398355,38.072088486092454,0.9494871986509834,4.529743762667721,2.0265235318428645,32.76202047752339,1.5760594212128005,0.23973802016877716
8.95,41.86153072791489,94.19826270718866,13.012949285002064,38.48621075230628,0.9540117684499538,4.614596893155191,2.0248667031807517,32.94222638311697,1.2689933219264191,0.25462653373123517
9.0,41.81826248452101,94.34363496556895,13.01222909798781,38.48539149628519,0.9566875026805169,4.625052825887604,1.980846045836698,33.01317601758453,1.601602241360493,0.46202938708891056
9.05,41.5215677154085,94.443300510675,13.06119759022533,37.92790321763116,0.953495468365744,4.6190262835918245,1.9668654409018684,32.75707654538809,1.486031845435277,0.38101883628597866
9.1,41.27863000894264,94.43803736638944,13.243628388368634,38.77788046364355,0.9453057463976647,4.582620535737764,1.9801024505615432,32.30872525681635,1.572341014468807,0.270178290930858
9.15,41.904036990362556,94.04207047566025,12.813518529061332,38.02239306371134,0.9239779347323777,4.69932451586589,2.0448990572951877,33.72886092987351,1.335492346607747,0.2396671295620037
9.2,42.05423821253912,94.05389869486108,13.06358001938462,38.64283606191411,0.9109762655271855,4.551868954619626,2.0012922001636984,32.6265772787132,1.3532855948918014,0.27147387468910733
9.25,41.788732430318284,94.16754158010832,12.64739245586475,37.57602004221542,0.9089580590116261,4.599846846987888,2.0948807320827068,33.07087518859099,1.316792839984441,0.2539862850113715
9.3,41.76991564143318,93.6783788165804,12.749241216153289,38.342225574445536,0.9069274832279803,4.603838210991293,1.9915659482887127,32.907875989937935,1.3365806533076987,0.35627655870045893
9.35,41.85282563426906,94.02877316661315,13.106142548069958,38.59138754504712,0.9073815520354462,4.528064023024527,2.029732664288776,32.716257110290464,1.3106709259545581,0.4012643120739289
9.4,41.672342403152236,94.3205406798141,12.943945217437198,37.77729490884042,0.9011662083807976,4.5206664595195125,2.0216611336401007,32.735603155043485,1.2195047312819218,0.18970935120814186
9.45,41.67116462412525,94.23031431633716,12.516878399584176,38.06804478357495,0.9116207865070004,4.62626512390039,2.0057331069226723,32.688351493326685,1.4509678473329757,0.35379878444019264
9.5,41.69212598570495,94.21105792054142,12.94450727221085,38.014974535718025,0.8936160784420147,4.625581849323043,2.0378001660659293,32.79220137548354,1.3773875344617499,0.3168793104702286
9.55,41.76829208093475,94.64546732804554,12.812723920217225,38.926562799507,0.9144717475400828,4.593371803179609,1.9875245738902518,32.42868576030679,1.2551756959115659,0.30598313773944286
9.6,41.30130230383529,94.53716873625463,12.658058612774987,37.94149602655444,0.9036891847445732,4.491443439905452,2.011858972010677,32.588657728376255,1.143733549596397,0.3960093280102432
9.65,41.4896967185354,94.67576320955266,12.975402949693608,38.78043321099414,0.8839539995045639,4.5656786797557,1.9787468997019475,32.74607127151328,1.390387105334096,0.2785401889697845
9.7,41.84586019367074,94.46169293297025,12.769904337320847,39.56906945600258,0.9001779471340124,4.594679408599714,1.948873883430779,32.31772952958344,1.1019753341970293,0.27764009215305263
9.75,41.46843031051764,94.42493278623827,12.482636849942653,38.77919637122957,0.8543920251335267,4.615053056044726,2.0165931096314744,32.23664835358429,1.1850974053697092,0.34461418339301814
9.8,40.79578109847391,94.34026483925554,12.60170018861485,37.428817766061314,0.9068085295848063,4.6460813102217475,1.9805713745574864,32.57397170484874,1.1610033981260408,0.30138804803317343
9.85,41.83844548279978,94.62789315127242,13.326018361375722,38.672357974080626,0.8954884804257579,4.602162473262246,1.9761757638864041,32.830873114221376,1.1930955840799211,0.3254817248347671
9.9,40.81977308254644,94.16002387410445,12.509023550104372,39.34004013056367,0.8951856373349316,4.629689497983146,2.032845363020227,31.305746828005987,1.278947631183457,0.44043804728602853
9.95,42.3489405632341,94.40590030300638,12.947767528130736,38.43791156132628,0.8692819333922718,4.6680586489938545,2.0108428340458184,33.02239749486488,1.3011326317875682,0.280661002275907
10.0,41.971368566663564,94.77660250902551,13.048483293273991,39.44126644444908,0.9199928392619604,4.436045237399168,2.0275444714646884,32.142952699602986,1.2475413266237656,0.49309672655135195
10.05,41.9581185718012,94.8618094856363,13.059970203878791,39.12373334407859,0.8839110429803042,4.62578942170697,2.0680267308939917,32.638344741962044,1.119240273988326,0.5117893645355023
10.1,41.3910710323896,94.6659077532584,12.597948822614544,39.01188874281659,0.8825705716558718,4.541535111436803,2.0218997933611025,32.38172275298337,1.3087637884646353,0.38673630115551216
10.15,41.291591638991626,94.42857711035798,12.82812513657521,38.56000092948321,0.894651578318746,4.592439846249102,2.030319870217968,32.237005267111726,1.2913493317050182,0.47581401705101517
10.2,41.629731806174654,94.86205455412593,12.948054668872159,38.40984130354859,0.8743601832044808,4.574693993911369,1.9813270289637839,32.9349106238488,1.2502651630257724,0.3497671654615361
10.25,41.749155428887725,94.57256231530211,13.117164790929277,38.61455576347683,0.861445361471468,4.501717871733301,2.0422782246969833,32.48210391280072,1.3702785012339114,0.4239159299320254
10.3,41.391864555772116,94.74088563676584,12.75975196180646,38.863054063524785,0.8744113181302039,4.506370636659543,2.0429508062617545,32.15419433355936,1.0859360486240601,0.421321316068626
10.35,41.671865770189484,94.56177653559882,12.633917642056486,39.20999298172797,0.8477656067660978,4.581248625302599,1.9862100661574362,32.27636274755721,1.1030188024150485,0.4030565015957212
10.4,41.98447611766308,95.24969350722345,13.179582910115993,39.162853299938064,0.8625695861426208,4.5435353232689,2.037464464048662,32.60351582725064,1.094931687223001,0.5581290206271377
10.45,41.96009107776115,95.19366533668772,13.209107395739442,38.68223803843958,0.8487076631940703,4.593689188304217,2.0275702895375156,33.17571578870301,1.101482438459978,0.5236929021234709
10.5,41.36065840704628,94.65803026197747,13.029356504692034,38.962817943806485,0.8545377861094892,4.527040864584186,2.0117697073013785,31.88654125023483,1.197361573902488,0.5841888387820808
10.55,40.91915513183511,94.6034600181503,12.788778781255388,39.21239897989472,0.8202729860780172,4.670345990104955,2.020892392466602,31.85030652635794,1.156379945104182,0.3965286940202926
10.6,41.710103071056466,94.89176389681067,13.046434534750642,37.82728187072733,0.8456559970427101,4.529682814176897,2.091017665395409,32.96984614963771,1.1018530285587265,0.5250293094385918
10.65,41.466198143252726,95.07602338286694,12.975765861088178,38.45035312423766,0.8303447045071134,4.66119897832782,1.9992754573305636,32.77463238143408,1.2224631547500073,0.513827947467887
10.7,41.88112800504758,95.24773978217567,13.16187841013903,38.45198516291093,0.8483308148976937,4.495586178018276,2.008764552942501,32.469073581207056,1.1182641391918637,0.4401518699996897
10.75,42.14960381093827,94.95703689309943,12.644188158071243,38.89142733974963,0.8148689372233857,4.568902673115713,2.0219185059343574,32.52167372135026,1.0756273714216302,0.6632659304307379
10.8,42.23132506973863,94.69715392357391,12.989477848616566,38.86394501161661,0.8456492847790442,4.598785923701732,2.013573218306611,33.31510146050253,1.0662360193711977,0.5990455944887413
10.85,41.755426387153946,95.08570921635474,12.924627804888091,38.898728023579146,0.8332166868207904,4.455935183246138,1.964415751544802,32.816836140492754,1.0084303439053766,0.6368369830804713
10.9,41.968544765775526,95.10078858411973,12.690816200611192,38.490493215944504,0.837343608298373,4.47294705875172,2.0385616308583585,33.124694527328884,1.0918480925582106,0.7435868607691658
10.95,42.227008477350644,94.6799404690921,13.025890662824574,39.59423829999486,0.8236169076784149,4.549160692023872,2.0468291725749053,32.513877218547165,1.0378853756817508,0.5956890142075233
11.0,41.674737559797094,95.01948303525849,12.984639252643237,39.33945235131133,0.8453125260017476,4.588964058930752,2.0711460135600976,32.502528184898615,1.096447658337838,0.7812187526849361
11.05,41.718258384828,95.03282786179071,12.877127197200808,38.01642977414419,0.8539046853330028,4.598624729173438,2.0024493748082035,32.875327330914736,1.1337769651660536,0.5239891333634947
11.1,41.95851897286464,94.89218948969948,13.082426408637613,39.196805014456686,0.8435266929153415,4.548997098633082,1.9816057819740673,32.25041103465668,1.1392245238902496,0.7984293699182855
11.15,41.54196311308667,95.20131063702131,12.632728971893435,38.41991528784257,0.8482500982578594,4.574424477731949,2.03904775030662,32.51830390618783,1.0646291835415567,0.767894405558102
11.2,41.46646375017408,95.421686512931,12.977937280304229,40.42054454974445,0.8621508759940001,4.444185075547399,1.9886491313011734,31.507584109072624,1.2531693055678417,0.6264091044248672
11.25,41.407078102543245,95.43369620599786,13.103182186250713,38.93033016522586,0.898615366936148,4.483658198646539,2.019350477523123,31.956536069223645,1.0074652970857245,0.6351441845470837
11.3,41.6457831094392,95.00157555120197,13.070103613886586,38.99368310881294,0.8914116095991852,4.587956364147384,2.0073213412905715,32.229486981605326,1.157270286416616,0.9595132757670435
11.35,41.47865896531773,95.09638200574551,13.272018023765122,39.34787370618926,0.9089849795653163,4.469938226851928,2.025105782019108,31.90722920152864,1.1029671233273006,0.7239339812740191
11.4,41.8055797493231,95.42363961377696,12.706388229098112,39.16870046384932,0.9084793250900123,4.484672481066352,2.006003218434195,32.54707885627061,1.1246951272484063,0.8857063487754266
11.45,41.40060133180023,95.20126516223957,12.6334610182675,39.28715416097618,0.912332280304537,4.395344984877147,2.0403124437347424,32.2919016411693,1.0485605709205135,0.8396664177181821
11.5,42.10496335608891,95.21912201103505,13.074113649538102,40.430185709660535,0.9185002076777011,4.481046571775782,1.9917408193288444,32.33445532756037,1.0421741854362416,0.8351844117069058
11.55,42.02644514700823,95.85062501555335,13.131900766941296,39.52405082937516,0.9142849830354115,4.397128424681264,2.09067943501167,32.69683012885062,1.1583709251607837,0.830926460285328
11.6,41.3023343557736,94.73466993166731,13.551993600220603,39.96881271068017,0.9356042934538988,4.505900047569139,2.042576169289445,31.392045277097917,0.9707647840124011,0.7609171532365091
11.65,41.9775177368974,95.21258337702587,13.180106368335148,40.19164152497177,0.9226904981109745,4.566355829514502,2.000357567385431,32.214636025657725,1.1232479426363235,0.7851359849342728
11.7,41.37974977141852,95.19058063729437,12.811620493146387,38.738305937015355,0.9218783136872832,4.496309327401095,1.9900989120611368,32.485121398516156,0.9979901337345081,0.8309421356108985
11.75,42.0699940947453,95.40008479692104,13.235263774534062,40.62072210569331,0.8994990246404405,4.484397128249842,2.013316129492091,32.04092582702668,0.9718284028563792,0.9886216135152507
11.8,41.671258065639776,95.84222427589403,12.826323057785173,39.93749490922259,0.9161631668351644,4.448200419507153,2.0047476962775628,31.720547533494884,1.1292840040889425,0.7781154654632897
11.85,41.43548023755803,95.42200151714428,12.670096179538893,40.142939157435805,0.8990917994712105,4.499190137167268,1.9939293035620966,30.95169830296633,1.0822368509148566,0.8643551486713101
11.9,41.92245984073323,95.41046990583065,13.69765878854409,38.88550953801929,0.8952950665420171,4.400160287499609,2.060424316142504,32.67671784331441,1.2886842135867778,1.0022442565359673
11.95,41.35919705348929,95.53809005828968,13.130451724509578,40.07868444068154,0.9079219759387027,4.433725970037943,2.0475729773855593,31.44368309709881,0.9965320573264738,0.9777267666295789
12.0,41.67020945322099,95.44949290626539,13.23148195018148,39.812343458690705,0.8750557092243589,4.580635445387423,1.985806491998814,32.237829665353466,1.1555529636600053,0.9652512122930248
12.05,41.669595719505345,95.63458287243078,13.197549010999746,39.16309977431472,0.8796006688419936,4.377705719670307,2.0349081444504544,31.944598700688612,1.1580762341157123,0.9427575490967635
12.1,41.55964112441935,96.17280394344183,13.513470108302535,41.1529706162239,0.8830574077468756,4.416381196529176,2.0183916322665216,31.4337052976825,1.169620677099977,0.9000692360310237
12.15,41.6322167486662,95.42347473544609,13.135283555713018,39.96734462714276,0.8834196033466171,4.3647836493225425,2.040881278318345,31.80340220943167,1.1249459321585815,0.9961294182211602
12.2,41.216775568409325,95.5606739881246,13.372425900296,39.41837269416208,0.8580925532229476,4.511845772987707,1.9977705182407817,31.513600046997425,1.039803593738708,0.9825743692220522
12.25,41.5855868403968,95.61408893724078,12.815128310470438,39.73683479125266,0.8640665217631472,4.423551895750925,2.081280012013567,31.87039834792747,1.236353209746804,1.0525158644321893
12.3,40.96098876425834,95.15127995957252,12.7276780184763,40.25303964926237,0.8600321845970107,4.360028694611633,2.019506861675322,31.227723786199586,1.2452560172300704,1.0346181277248792
12.35,41.737957444843644,95.819444608908,13.435801341899001,40.4216209075595,0.8403858263484674,4.3570534960192076,2.076798705838864,31.98701211784627,1.2246290429868345,1.0063864567372651
12.4,41.67886381892419,95.68199791752188,13.451533375682075,40.05191212359813,0.8263325215566621,4.488738391508637,2.002545819880139,32.10761692805839,1.2240721890162956,1.25495119853643
12.45,41.685561568350856,95.2503209235766,13.213962608787675,40.51086053459246,0.8280226674637858,4.459632145468026,2.0569424336894317,32.00657617514659,1.307475728582178,0.9970209573508032
12.5,41.23298941906748,95.67605686003287,13.146065953199448,40.70167383632086,0.8584625121001511,4.462607498788103,2.013003440280829,31.452495774604774,1.2990683210137073,1.2452839499212194
12.55,42.41525408820491,95.80149433927534,13.134750997567114,38.82174470700295,0.8523624674679964,4.408898134093571,2.0659572691414794,32.93542630862054,1.2857098381165277,1.1645851345570823
12.6,41.26128086176263,95.57045544467374,12.925088263509828,39.35934496412064,0.8348620409526866,4.460007353989801,2.0102558714894094,31.796844744722936,1.189293534929813,1.1692906944106343
12.65,41.5137608349599,96.06530989607427,13.485514700070992,39.05460660102043,0.8433171563317132,4.479604181950718,1.9834345501896542,32.281190275009685,1.3315934476831894,1.1346649290332251
12.7,41.14349266502175,95.68536041301522,13.26911657840834,39.793064250453966,0.8462607687504287,4.4380777856726015,1.982878995544893,31.530254532834277,1.1907401364084182,1.1735936572493264
12.75,41.84874854933414,95.49265253486688,13.234440083932848,40.74768687956572,0.8462446134512154,4.303355525798056,1.9957592266899389,31.29503736618744,1.3029347301276237,1.2312006255816528
12.8,41.193372921064544,96.06224854808471,13.20585681651458,40.20678383136278,0.8493752021973159,4.277872978131757,2.0326300161561006,30.948489913514003,1.2025598100210106,1.116385129155168
12.85,41.709299922031725,95.8597582623444,13.37751592484581,39.02948388264205,0.8752090051706674,4.302496754603946,2.025419839159927,32.594390668468314,1.2814952922269782,1.381248719276402
12.9,41.015499886039564,95.94725452300612,13.245477588621215,39.567528072806326,0.8358264902335897,4.3975204906982635,2.017396228266335,31.650063430868244,1.3698968820866049,1.3284922739978504
12.95,41.43410421575398,95.5508346564074,13.309232240183746,40.504387774404165,0.8435985193683478,4.29155654889598,2.045333511810487,32.00173322214797,1.2936149005740567,1.3295806812665325
13.0,41.07291911814919,95.62732087531866,12.834331270949313,39.42342874436602,0.8280983323318193,4.310849578970231,2.062265161755817,31.603650724920588,1.407379448352264,1.3436180185828295
13.05,41.596366814994425,95.7373808450776,13.257848022193258,39.73853428825136,0.8248249543366998,4.3704697874136,1.9826250607371498,32.25007125978832,1.3055819983425636,1.4519079674162234
13.1,41.27924183606885,95.96354596221516,13.680871271993507,40.02982604190937,0.8159095202408603,4.3133523092518775,2.04253118859737,31.64819895996492,1.4908678543432845,1.3772824942372492
13.15,40.90429577139795,95.98943639352215,13.008114324753906,38.5518768074011,0.8176116212398498,4.285627169067299,2.0814011432268638,32.11409884446773,1.3575906503554487,1.455218684872357
13.2,41.35044921191506,96.37283887934976,13.109020659911733,40.382585877484395,0.80722716761564,4.4097687006626,1.9930580322047309,31.51868026595147,1.5930875719779511,1.3562742226605293
13.25,40.85113479677976,96.43236521446178,13.36791536295334,40.08616956838645,0.811799877307786,4.378149750762146,1.9942042141434246,31.533949110282066,1.4553833246294514,1.5633117944247334
13.3,40.917519896616476,96.11809040945374,13.38777457435448,40.25392410628422,0.8039828044211177,4.390415545809911,2.022905047739178,31.35985314872893,1.4087605642511356,1.3845535070792803
13.35,41.453857375348576,96.08532104184461,13.308326294808555,39.18003163482966,0.7846413754136111,4.393310609865615,2.0172263337013794,32.018655502532894,1.3361061969940202,1.3666935359707801
13.4,40.41962891215702,96.58278253978665,12.751237375826973,39.33636510763987,0.8139255402523177,4.418505657458081,1.993772363105052,31.239212172417947,1.4071952073630825,1.4118674695965425
13.45,41.40956876111457,96.16512851766863,13.284645258940158,39.464773907378216,0.7717686448100504,4.328374442980908,2.0073251529821494,31.91430629363361,1.6142102434794472,1.5527925433976697
13.5,40.90153363843527,96.4140609809975,12.866880319181641,40.06627887132848,0.7877881616877564,4.315028313717042,2.057260726600027,31.325248413267083,1.3706211784530085,1.6193750558427564
13.55,40.73557570703039,96.07796664109118,12.960009609324207,39.94818208645352,0.8085608343616382,4.219754978858221,2.0359685848435065,31.288713782174657,1.3604738723381513,1.5346578262238713
13.6,41.18895887321595,96.19116995302429,13.307020938032744,39.996194881647476,0.7732746617797531,4.3019579015658,1.9838047979434956,31.45022816312718,1.5259093514753639,1.6889580252007868
13.65,41.247104260897245,96.17088310265535,13.099827657029048,41.168438429164894,0.7999061167904529,4.2764780654244525,1.9563009356362147,30.90849363194963,1.6187809837061218,1.4470452472988204
13.7,40.89425660394917,96.09297419727696,13.379676945003915,40.83531562475879,0.8040493768076744,4.366199283567322,1.9738478251043865,30.94115081646024,1.5034164837203943,1.4815453026752072
13.75,41.157635563857184,96.36914133037148,13.967965447600415,39.42513354631725,0.7954607697680184,4.339698981682199,2.011913495330019,31.35147421173896,1.4808022544401092,1.513917362231125
13.8,41.3149250163392,96.10403173303844,13.378819910754629,39.47769536567587,0.7743255591651962,4.380811672548623,1.9824319446184835,31.9943060506209,1.5484820221308013,1.6691164549530428
13.85,41.27688110615886,96.29643516065218,13.368387649122846,41.14258260940071,0.8215848664325397,4.353739396445598,1.9802095854709159,31.18076591021578,1.5656481761517815,1.498683505541566
13.9,40.88992402632162,96.44232927083362,12.967301681503553,39.725847620306,0.8133282085873809,4.354170280185463,2.0265327853633845,30.674985542600574,1.6900704914389195,1.5838232021637255
13.95,40.64803569736729,96.8687353563307,13.033997878923726,40.918796705981656,0.8145691210819107,4.311258971480738,1.9958363609939986,30.44419864145323,1.7678447554593326,1.4991998646073086
14.0,40.54396575012911,95.93206800793082,12.932341722525615,41.07825430868748,0.8461177850451062,4.2837249107954,1.992324285662744,30.559907812236364,1.622007306867113,1.6187240968067662
14.05,40.67350289438627,96.42582293433304,13.068449046727114,39.584911387798876,0.8306817871804495,4.248572244260319,2.009647158546707,30.78579640276739,1.5848487333319952,1.5430206736571894
14.1,41.04124012445192,96.5858551463512,12.932110289015803,39.780979064468504,0.8614562170088729,4.26431443274108,2.046130856436863,31.652036201529917,1.5722761608232052,1.8630380668534927
14.15,41.0142363804198,96.36797481259626,13.043581076625037,40.03239247538723,0.8499704088547725,4.205309846847572,2.011236508395958,31.65294603636254,1.5468238649613668,1.6922138780828029
14.2,40.93149095267208,96.6795244167986,13.159969332950373,39.37429563036855,0.8704141975478369,4.27747327585286,2.022123646286055,31.76142374368881,1.6979837793077144,1.5947254190092857
14.25,41.22163304527431,96.6196091775701,12.965519691930384,39.298668958790664,0.8567224426999539,4.244943412676731,2.0032625159456847,32.138049371805316,1.5963106756239676,1.7113988854120648
14.3,40.6144241004963,96.63073491830987,12.864344295740931,39.70630983700632,0.8697727041234201,4.127513571025007,2.0466571731299297,31.222011592291448,1.796800272376013,1.6457487206801515
14.35,40.57059184825452,96.43539543607035,12.882423488742948,40.587731099881225,0.8670630183827142,4.083577723714052,1.962748403607731,31.025756154196763,1.7388401293558742,1.6063848920181345
14.4,40.66101685493136,96.50534361687296,13.339628076760494,39.6807421741638,0.8713001668333872,4.191926596858827,1.965254862881992,31.470650066808165,1.719189590993075,1.7039316898894916
14.45,41.37477639535652,96.52368729152445,13.244458596757644,39.85299247373984,0.8821772928980892,4.201625357647675,1.9829962034915218,31.73342782943256,1.9097308203532386,1.5486396189079839
14.5,40.100283495153434,96.36305102736922,13.489164590959279,39.6746269336624,0.8765708713341587,4.205837509179475,2.058368417564579,30.888355661305816,1.6728149958620295,1.7931924919417177
14.55,40.85638955019676,96.6632988126827,13.497432137606513,39.047512558679706,0.8786386695998104,4.2923733120359975,2.043219089802162,31.315517873896788,1.9036524217811241,1.778287265458956
14.6,40.79916520071789,96.38910708529234,13.154708714850425,41.044291367654125,0.8879572934680707,4.176280400992676,1.9632683998020233,30.43444944265215,1.8580479196945934,1.59143101778243
14.65,40.712970048660004,96.44018422435741,13.410909987521254,38.36771933920184,0.8664024994902577,4.133900267582805,1.9817910916411574,32.17514602389897,1.8888409153511203,1.673839479913992
14.7,41.31013429827857,96.352547294101,12.886754884294543,39.55121434225277,0.8392750123188554,4.223649530435286,2.011328919919475,32.11396621945284,1.885662910708099,1.5350279019905804
14.75,41.13524329690746,96.96728412372927,13.821036762378338,40.401681128689845,0.8524763636211194,4.25389958990362,1.9962118342162634,31.121998155632056,1.8139474945898646,1.7354690666776136
14.8,40.91198678891317,96.5910506513735,13.552534563595064,39.03471690842225,0.8504541807369149,4.285557894077482,2.020016671317922,31.397294314391907,1.9728003156203202,1.71771616417486
14.85,40.24896794988025,96.53526533978157,13.203250942506825,40.436088004534746,0.8555038955761376,4.127018982450945,1.9779437764640746,30.139899487139225,2.0389643916208535,1.713197358792351
14.9,40.62771587782241,96.95694832177516,12.969533639717236,40.89008088040809,0.8493699096158546,4.165365179200262,1.9422764402518538,31.003842363638373,1.798948252664948,1.652574757019514
14.95,40.41320256506983,96.68892223451041,13.358698782712295,39.41203781799733,0.8425469237059428,4.14991049664158,2.0097255707902817,31.310414567041853,1.988605006665331,1.6918745066149088
15.0,40.386334485170984,96.88952920861887,12.79972525161295,40.15995766510055,0.8228066065143776,4.255799949557649,2.0279495456944554,31.34488534942258,1.9896973221888579,1.641457747409516
15.05,40.482222523224586,96.78804064471379,13.075826859135812,39.23640520306826,0.8294932571404524,4.203594265197342,1.9436137884682614,31.674575065860374,1.9942576161050403,1.67783091538402
15.1,40.328155830983334,96.93763831642853,13.461152382704523,40.36815380886938,0.8003925477361166,4.1592443150048,1.932604436992116,31.23584715682853,2.0697453401315338,1.6408799322614078
15.15,40.62960172761003,96.91781120086343,13.29605102939686,40.074372141346174,0.8315025811477406,4.194016828543951,1.974531767081946,31.29966105254398,2.039674281466324,1.6419570741446134
15.2,40.89883396908763,96.3775301191827,13.157656481990024,40.16238390502694,0.8194349955361222,4.1262343887381805,1.931307234963081,31.11631063570857,2.0418629576436857,1.6371418311986508
15.25,40.76812057505364,97.26464806586633,13.521608962124628,40.96655916678378,0.8192689654149976,4.129539445970133,1.9993939198063195,30.699696400916157,2.1891391471154105,1.483891598409917
15.3,40.34837957231729,97.17449279331625,13.027623294324615,40.33852799180692,0.8080779801707862,4.1336494980314775,1.950958715753462,31.034387921328822,2.03385242190413,1.6228077533644347
15.35,39.69714761921654,96.6085942921568,13.361741780414917,40.94907730419243,0.813482464591022,4.101236435049058,2.0071084382665147,29.626539285468674,2.0975975307767842,1.7550234594632657
15.4,40.618771980462235,97.18939129479988,13.169310862588725,40.44873562879729,0.804831102958857,4.109927113607123,1.9737548169624206,31.05387089485924,2.1148182924463956,1.7975666151927374
15.45,40.56833065263684,96.94381729182204,13.085035078724905,39.16274401832371,0.8202909528478534,4.1391353265518545,1.9871861190163338,31.351993578849264,2.102697896958666,1.6303897942593386
15.5,40.20546590187862,97.04622777918793,13.415965147555724,40.18286036046667,0.797183663733062,4.127054739395388,2.0021973883796425,31.039891223595514,2.1435081228131465,1.6765716068584657
15.55,39.994887955201364,97.34543874391974,13.055263073839248,40.33963689526652,0.8249157332087673,4.192742940045705,1.975396550352292,30.34597832348954,2.316909750115473,1.7713332358464273
15.6,40.52420388491723,97.29739189787533,13.782157644738964,38.98190556987815,0.8186005053526124,4.151455306812331,1.9502110521990517,31.31788832284271,2.1550887531963863,1.5314067812153294
15.65,39.85870779278913,97.313846020354,13.16366503355356,40.92386333321505,0.8350342502612812,4.091983919218584,2.0071911777974165,30.3568628032401,2.442015417223156,1.687112516049808
15.7,40.52236346455915,97.58034052703398,13.810479343035604,40.03431946143196,0.8073591813339912,3.9645351905451958,1.934766084211088,30.219549250488523,2.1312007588118083,1.5117397165462083
15.75,39.684776727931755,97.3822210807938,13.042750931640025,40.240377464016866,0.8036535461385994,3.9997498197027017,2.020178411693216,30.56034410530308,2.0809017301538315,1.6748576556882306
