time_s,boat_speed,heading_deg,wind_speed,wind_angle_deg,foil_height_m,foil_rake_deg,daggerboard_depth_m,vmg,pitch_deg,roll_deg
0.0,37.268489458790064,90.37697360524457,11.888527093292755,30.017683981768872,0.8462761962936931,4.1335844139383875,1.7969597181049488,32.30905794347571,1.9497987119507527,1.0026924953656327
0.05,37.35638683921089,90.19492143065325,12.249652875073945,30.43223308090643,0.8613880575132676,3.919178894637229,1.7568640087987908,32.035551630400924,2.0217288214150266,1.0848866028152102
0.1,37.27874842793743,90.09256439886589,12.079720240665452,30.09468403800412,0.8561503907978185,4.015562447280998,1.7413780815753128,31.989871274623408,1.9867739726298745,1.1268730347066507
0.15,37.091746905607174,90.46781580898836,11.839887099996437,30.838870609549847,0.8640171278861685,3.8898023976055285,1.8321555033734884,31.689166663877266,2.095766001397499,1.1103285125652222
0.2,36.90837135605627,90.44319095072602,11.802219094531992,29.88606956634665,0.8916987546022983,4.020369077949854,1.7839330678458296,31.609736655845712,2.0707912239502106,1.109319370811028
0.25,36.79426795112502,90.2013390660113,11.611352150169298,29.331892839254554,0.8880655017940542,4.003032037185949,1.8717238117653014,32.20081724704017,2.114554409151316,1.0800376402070788
0.3,37.68860597804069,90.83539949088119,12.100640061922848,31.697990348460507,0.8860811737685632,4.102484290152018,1.8683677815729338,31.865867633688396,2.1222261610301367,1.0639895740925556
0.35,37.50095117153122,90.1030745019499,11.943975467283629,29.943193471485852,0.919940928020854,4.014431553294471,1.7955525907034633,32.595268720278476,2.1232310942743853,1.170685790324423
0.4,36.90097148365897,90.46299772254008,11.444282501188844,30.020847078689574,0.9041486822090276,4.113969145801437,1.882452320965975,32.084849831094594,2.0468259732266127,1.0614654590638335
0.45,37.308759926489195,90.11380128930996,11.90798948368339,30.425002182345896,0.9270728753645926,3.989897771031983,1.8419411501780762,32.41257321061052,2.1827305774626433,1.172942052494718
0.5,37.203400365818965,90.46132186878218,11.821498870353677,30.570386339187223,0.9134768273231566,4.040115929799826,1.7959870101354154,32.09527611762649,2.046047814864458,1.0951191476694608
0.55,37.104790101845985,90.19707170154928,12.445500811009365,30.304961719853875,0.9154356435748948,4.047002352085362,1.739422993993532,32.31579799781597,2.1517589045692027,1.1955084863574001
0.6,37.39331705213774,90.39806867471037,11.630606641547859,30.615701467428828,0.9069149789307845,4.098130141272299,1.8390537796611193,32.52730959009858,2.2629573213301817,1.1320150755431202
0.65,37.238447080717414,90.90381797389264,11.700837848493624,30.65231934465276,0.8742498874074401,4.09616888091604,1.8208780438899461,32.099927361643665,2.3372028414104133,1.201619718407645
0.7,37.24627796231052,90.5678035917329,12.343445582417207,30.854755500190883,0.8883167528189118,4.123064781437554,1.8344090855193238,32.05444999268727,2.4480819072725715,1.1967813235628189
0.75,37.11365380466494,90.47260675067662,12.409727640217127,29.13434973598733,0.8958909793807162,4.101398739161356,1.8161311766237502,32.27868443945615,2.243854976665128,1.204153760305686
0.8,36.98893167613537,90.18327573360546,11.889053400671973,32.15339184822865,0.8967848613652967,4.130717684646786,1.7902074571674258,31.068898509321837,2.2267700116471163,1.277727088706841
0.85,37.44950833725925,90.44756263683159,11.92184583433156,30.785841149190226,0.86591184402165,4.042808600632931,1.813238073094795,32.492882151251706,2.3554975266584486,1.1074536475621213
0.9,37.663962726406936,90.17205787616047,12.23876168934616,31.34751896679803,0.8817560045585616,4.1256412355924486,1.8487724299624981,32.31750213341512,2.480909602602502,1.1735950460898568
0.95,37.239577536928266,90.66935458313948,11.507627471795713,30.028526558362575,0.8646828806535657,4.204429277868053,1.8184651448353408,32.41285297588007,2.4713836112277656,1.3983081433010551
1.0,37.838909714632244,90.68663079609439,11.628783289084682,30.71558444980206,0.8772433438530312,4.01275118057299,1.8198055464909362,32.38293926706633,2.28325664234887,1.3617983034007166
1.05,37.723025685030414,90.44980225224134,12.028504660378271,30.62672200448616,0.8713651979341793,4.148494757285583,1.7865566536420012,32.86681460367024,2.3719606274115814,1.3078796664899721
1.1,38.09835177598852,90.93414261733801,12.491043864086608,32.17817814008465,0.878511880257848,4.165353801166943,1.8363928984358366,32.18914126956539,2.468201043918069,1.4591595935563788
1.15,37.74428468697384,90.92253086610282,11.999320379480679,30.79129886356135,0.8813032438953997,4.217999625908606,1.8018159030475778,32.22330135101947,2.4905433238027843,1.3453501682509572
1.2,37.6022567700858,90.6027643896605,12.138128107090122,31.78398832650111,0.8736493508189447,4.179460876452871,1.864244910268486,31.820000842183504,2.4809272605992008,1.3650742113653602
1.25,38.01809574195844,90.73027501679965,12.400992571949384,30.84996760532928,0.8789809861399154,4.1474743178351785,1.8161795720798193,33.03182802407259,2.41410011327927,1.3634621782981577
1.3,37.63286823893139,90.46532597519239,12.649045956134,31.040322466585284,0.864999497526021,4.172804233887261,1.8308430892402505,31.966253666522476,2.512861525868403,1.5930537753928589
1.35,38.131643151401725,90.56793668000961,11.982866999932092,31.237127203735344,0.9044725203012827,4.108428730442411,1.9061433961811907,32.41585733038588,2.5565921798712563,1.4734217725969014
1.4,37.68554994090784,90.39001984627707,12.127630307611975,32.35952187440463,0.8577209817649224,4.134770250757529,1.8335343305873761,32.55784742095522,2.423490788266967,1.4840482943857753
1.45,38.4855159348372,90.56347586296751,12.592115398558093,30.18971134115111,0.8678623095673608,4.083409175491119,1.83101989816812,33.500796871706,2.620061082844833,1.5191602818353147
1.5,37.87231023589172,90.6804995445807,11.761062438899257,30.643380161710205,0.8864746855440283,4.258261304965512,1.8633092315568751,32.4004194539642,2.608363488180399,1.346757987541415
1.55,38.55751091180603,90.3150398557705,12.403145629395544,30.25292459505074,0.8858832636188464,4.20152184154029,1.7936839179099844,33.03599354602849,2.4847822834136024,1.4602413822481728
1.6,37.700259663579345,90.89786826644557,11.896293149373635,30.90643598332801,0.8830763041166381,4.12500270714673,1.8862649491296386,31.92892048846739,2.633025788519235,1.5566003267575812
1.65,37.961349481215464,91.03272808599749,12.181066789488295,31.15117096695962,0.884957219056338,4.201691614384724,1.8800553927280121,32.51180741206083,2.6387306832125765,1.531955497196985
1.7,38.345650466770735,90.79874591265408,12.09957804211823,30.640710525332562,0.8507349784173794,4.260394997488605,1.8674648172288117,33.173840407380574,2.6561707558129912,1.7204356690455787
1.75,38.612552938297256,90.14994218407706,11.925587724820211,31.308451832291208,0.8927500430335032,4.255808317517716,1.7519098922276377,33.36957691487728,2.728295390078227,1.51253201219883
1.8,38.819770739117395,90.78452982612659,11.923990576122575,30.463513009203854,0.8682038839187033,4.145971319139274,1.8469294242219947,32.98729071574008,2.6152554530102328,1.6417665398153023
1.85,38.36469814847492,90.5229546908742,12.243438015646111,31.212627558621698,0.8818293408089632,4.018969891364209,1.818012079965714,32.48006540648183,2.6562187117278615,1.6413686752682735
1.9,39.07333961331561,90.74241756271837,12.427788715979528,32.816867683728404,0.8379521834126827,4.23607520951515,1.8914048228197764,32.80762399689464,2.4319271512567084,1.5984950696549132
1.95,38.29335152284862,91.28132526501106,12.151253182149162,32.31038460276189,0.8606632464280719,4.164472445300091,1.8907391931530388,33.06111681933489,2.7453375804052205,1.6228003904031414
2.0,38.8266479243427,90.33323952222231,12.206011127313577,32.210344278698365,0.845694761543891,4.2603371237550265,1.872280514974663,33.072583855341755,2.75039725633687,1.5830017507069645
2.05,38.17839337540231,90.76128144086314,12.336041488083694,31.428358873354384,0.8541025286095592,4.285306336779128,1.8260217845912325,32.67054873863938,2.7897782944693588,1.4573185072015669
2.1,38.59343126603322,91.1962763722344,11.954930826957622,31.106172942634117,0.8460186672427102,4.300380050460238,1.9084158216435316,32.737906047225884,2.6185274859246483,1.651639255073984
2.15,37.768296871926964,90.83691189659628,12.387475752580588,31.435091907235517,0.8422421429530677,4.34349727569623,1.8571879368391055,31.695105581583096,2.782287742456865,1.666083969424718
2.2,38.23478560676002,90.84129284142311,12.412087278939191,32.25326182227934,0.8215821067067655,4.318223400930118,1.9206825079721148,32.344772800837156,2.798376869936813,1.6863334686844536
2.25,38.936581240173446,91.56750633111938,12.862870415985826,32.942177384367724,0.8307665680864563,4.354221937528173,1.8759453507683679,32.65150707274742,2.6760419659182872,1.651763379139253
2.3,38.161969166611485,91.17750342659555,12.122743871500036,33.01699176778053,0.8276454715275924,4.337177061089881,1.884647028695862,31.932203168994935,2.823511442377458,1.7311383848220918
2.35,38.799820980159936,91.33998129831198,12.106959588757357,32.87757877159856,0.835833738778352,4.347567868509235,1.8570893214138366,32.490236710540955,2.786672373521727,1.5905698438874676
2.4,39.078444957730106,91.25356951238754,12.418496513458896,31.97060906680099,0.8429996038033098,4.262280572388066,1.9145593296159427,32.963930750037086,2.6240541910534905,1.7832105700711536
2.45,38.62283685181279,91.19382003026261,12.435715395001674,32.55476432853085,0.8360213571486386,4.192486929016496,1.8920523618738643,32.309909639934276,2.816586299782048,1.5921406083357255
2.5,38.408412561488994,91.49289266341071,12.101882601328235,32.36325067999913,0.8237032772166464,4.4238721283053914,1.9185311823070859,32.789865685250206,2.718046314331728,1.6675209427768296
2.55,38.62361604116216,91.67671093673896,12.139627046657871,32.497897665207404,0.846591685534964,4.283777570048366,1.8820120863672105,32.353956742235624,2.6546014588705527,1.7351288445737147
2.6,38.54417058228916,90.80297994236969,12.38015754458845,34.11518773402453,0.8841310850742304,4.358761982435451,1.8767123719521162,31.842132530883408,2.8269074833534247,1.6435070729311188
2.65,38.79477146028437,91.23851170262499,12.042600102842371,31.506192021021796,0.8811967020293334,4.2570362804692845,1.8974113103050247,33.06601996913618,2.8009141279676744,1.7481988436607492
2.7,38.92541141003505,91.26002014503149,12.151460310404952,32.62563728924671,0.8355404049876815,4.352875101340101,1.9242636168633653,32.95998897575512,2.92664943290189,1.6639590031710496
2.75,38.847131108749814,91.18697617814078,12.281063331661086,33.688377682076535,0.8817220815811475,4.153302200497602,1.9129154797686758,32.110444811426625,2.8367284415615797,1.703462045099564
2.8,39.63010065059349,91.56303310562951,12.512272417941123,31.86419392292124,0.9024747474567905,4.280306452965084,1.8879821970116883,33.902431271658074,2.891958382568612,1.6816750423596651
2.85,38.725389538593255,91.40545907872179,12.117017034567349,32.48978005463666,0.8996195318903668,4.30393381197984,1.8295368737906257,32.51945656688925,2.877503586583438,1.6516968595895574
2.9,39.41975372746533,91.84607127466424,11.812103401497394,32.62008097426352,0.9062963042871472,4.342472343198227,1.9109788012911488,33.16134613564395,2.9252303789181258,1.8791266857748745
2.95,38.5965572069887,91.66323219406996,11.798348586711581,32.88402780381711,0.9182199185611118,4.383886115340946,1.8449156432388973,32.82305378584839,2.7790261456105134,1.632580319328882
3.0,39.06019304823441,91.75280030922492,11.967054599707632,31.97299993202512,0.9365411051478615,4.2587359151755395,1.8905322341612463,32.892365823555956,2.871833795074653,1.5171110291564118
3.05,39.47802670360231,91.13528926976932,11.958220500803616,33.55662480191068,0.9234845559485797,4.3687730388004535,1.887409988940282,33.07884264349257,2.8503286755330848,1.6354692267598152
3.1,39.564792896227395,91.25701092783173,12.252534915064611,33.655994190739904,0.9574623841763596,4.407535590163011,1.8497464036461906,33.18409593377506,2.919140980824994,1.7095443454143753
3.15,38.98943911595127,91.30105803040493,11.998702502914746,33.59503690949406,0.946927379538224,4.479420626285317,1.9048465368405312,32.55447533078692,2.8921898911569013,1.6676938855427637
3.2,39.39341217102439,91.83620542333084,12.124984942166765,32.67940489538207,0.9392105964591306,4.385763277052106,1.9596883969426544,33.12824606540977,2.827097983306978,1.7776513794400606
3.25,39.37418658356568,91.2870727653928,12.111913270187614,33.39862614588882,0.9653040323894938,4.320463786853845,1.8870634863581996,33.40340125907264,2.853298157466944,1.7725861069756728
3.3,39.090560343952404,91.31782059145365,12.199900194056118,32.757771034754555,0.932977233739242,4.276365271948988,1.920796129293078,32.87035646693441,3.015938742338932,1.665910549069609
3.35,39.63708411922987,91.29539883608054,12.645226968331448,33.2037792833161,0.9434213240146617,4.467028332543527,1.969863754113938,33.21648517978029,2.7518483439065515,1.5537002022696176
3.4,40.06377160706442,92.28742411884859,12.484851903877646,34.99314802223777,0.9405115801718146,4.40608937441487,1.926439940523179,32.73693661046063,2.9470942762159162,1.5820513977733133
3.45,39.568133344225664,91.58703501462422,12.328006276684134,33.60173520210995,0.969434029081323,4.365070189886448,1.8825798284966377,32.994246026435654,2.9922189349216715,1.6780827538243688
3.5,39.60275975228381,91.77848667050544,12.213165913549222,32.752410892261985,0.9307123910405963,4.273706294079054,1.9103941876965784,33.547593955225025,2.941376678031637,1.5509873118882997
3.55,39.672705096420444,91.38427794981426,12.224581398665357,33.758747043194525,0.9077030656445029,4.3194974046429495,1.91906073148874,32.914457127133204,3.0545242334283937,1.64175075970513
3.6,39.00470930575796,91.93266037308221,12.419322163707108,32.734988378602466,0.9212257276456587,4.417686689611759,1.9490002023005961,32.282876865619016,2.9733053073514624,1.7794437843481832
3.65,39.72409756951435,91.27283843365211,12.48812807563243,32.89057055099758,0.9287787224998463,4.405442062639188,1.9437506352296638,33.48508456627537,2.9299404441879884,1.6872756950833863
3.7,39.14469373385177,91.49490948583431,12.119827616214652,33.04962167302052,0.9278488805492278,4.2718019756911945,1.8255707020939937,32.541442408366756,2.8624642504539297,1.6571597329985672
3.75,39.38374959867062,91.58021748699957,12.360575917306557,33.51581770711392,0.9410930919381153,4.4308731937572805,1.8843138634341146,33.02101721631607,2.9322133957744745,1.5634538632216943
3.8,40.248082114153824,91.84117528605012,11.84810916161305,34.53103416143347,0.9267896729362155,4.3031092148732935,1.909226626428248,33.156814635265235,2.9543371687424083,1.654020833092838
3.85,39.57328271861064,91.61157885455067,12.413583814748163,34.3282499046474,0.9091119939032625,4.48271890793145,1.882190818395395,32.91619927936824,2.8994905810377944,1.611127768390799
3.9,39.467437606574734,92.21423652437227,12.555899635531842,34.33757563612094,0.8936355279578401,4.4182182950587086,1.8029631952893694,32.35230392818005,2.838797926845879,1.6427955052238372
3.95,40.09474155153036,91.98242584290075,12.29991327790256,33.250230570646224,0.9225589231250106,4.382089460837203,1.8935083446808971,33.3967835135301,2.800505760044038,1.6733398050835067
4.0,39.52053155580277,91.7075976469435,12.828739485925876,33.68844638195304,0.8979640746080109,4.473456667235908,1.9164739199066754,32.7986811627162,2.909902256661924,1.6780676753201242
4.05,39.55665051218574,92.15277659569269,12.158809718371815,34.30554436086932,0.8945313548763474,4.439372498499924,1.902123354411036,32.30495375974862,2.774477934560504,1.6071593639642907
4.1,40.24856727684179,91.82842031018627,12.438032016320625,33.72298393283212,0.8980600746337606,4.501735434232481,1.8892675086099127,33.753855560213346,2.8526216845100882,1.6280232318795465
4.15,39.839854966161745,91.8024966662305,12.379262955179842,34.01550162546414,0.8892434370834444,4.4311072837625956,1.9217078479119059,32.61635225886627,2.692857195693305,1.5359298792967597
4.2,39.30341541850951,92.19741929825805,12.367570571461588,34.56674400042169,0.8998149211518449,4.438608244839721,1.9320387860910997,32.63934767084561,2.9507000080255197,1.6569174366916606
4.25,40.068502389823735,91.38361393392624,12.368733011666293,34.06097009124204,0.9035711156787175,4.417125396907168,1.9089645253446001,33.300531879299406,2.9726565773941203,1.4843774366966185
4.3,39.78198294040512,92.20387410913946,12.428616182442912,34.5105527060947,0.9161942599953539,4.453940436534804,1.9654450554276965,32.73150651505432,2.8825368574068397,1.52740470508589
4.35,40.53464147591031,91.86524092389462,12.618423504410123,35.514301617772844,0.9030537057200199,4.543921735513198,1.927288417366959,33.08028319175724,3.018241567564552,1.6312135930400429
4.4,39.84512434028101,91.88820253435648,12.755527272335437,34.32605063255838,0.8924544010682902,4.415721045082774,1.900669699468308,32.98521014357663,2.9746372502951943,1.481668383942915
4.45,40.36727604209133,92.57972323206413,12.41518223994101,35.31872645296241,0.8878638706501714,4.488566006393391,1.8943309337641085,32.83751864447284,2.8999704049906376,1.400499206310483
4.5,40.700074147441164,91.9807152861213,12.624254474509337,34.93146404451062,0.9081528536720043,4.400623129632078,1.9229236614065843,33.441986838673074,2.8468937157926613,1.4621147269342116
4.55,39.71385816514131,92.3758214030879,12.249550097489138,33.55942614940241,0.9042396663808786,4.333165768901695,1.963954774658938,33.27686672798219,2.8219868837030733,1.5931869452826328
4.6,40.06352803541068,92.22997292057504,12.620996794878472,33.86146443071415,0.8935268502667302,4.473295738768746,1.9070745303991348,33.032071049650376,2.8885530764915015,1.2867325235970406
4.65,40.199234624777695,92.27922315802331,12.243573311025765,34.095781024456805,0.8908593902002819,4.486709291791615,1.9508881897896235,33.37559985415134,2.825500690027883,1.4628050881539187
4.7,39.90625080192876,92.1441481131228,12.711062018114966,34.12712320683759,0.896304112546353,4.461476546310323,1.9370686433587083,32.37760727814727,2.8735352525622466,1.389803991542881
4.75,40.39806036685674,92.15440763286813,12.995415122443028,34.70838478032132,0.9031537220609528,4.381872758599338,1.9952425136567853,32.727258726286756,2.8719872009849685,1.4127222721747257
4.8,40.10589160276524,92.63538093435183,12.416606906852952,35.247787574674426,0.8715205325496461,4.493399412031863,1.9483600555710454,32.894163125824534,2.7959780073946057,1.3835661552669931
4.85,39.99620927491547,92.50929062261531,11.90340937567272,35.74196469592821,0.8765328374639555,4.49458659458566,1.9169060513174057,32.35870235260849,2.893803449465311,1.4733230259849344
4.9,40.22852227648064,92.17504151640415,12.319145017469545,35.12476009825897,0.8816193987211441,4.4287039917719,1.9611375324492077,32.68959530108754,2.7792991207503,1.3855519688145208
4.95,40.37397320559907,92.06177319684122,12.768556556710914,34.642610995086834,0.8562220844580615,4.4042007023365874,1.9633339374715908,33.202969934207815,2.790383095931103,1.446591776713328
5.0,40.390177592199635,92.2003985422583,12.603355230734246,33.54243112945909,0.86118440543497,4.473602295567844,1.9295029437621642,33.565290051593415,2.701220895380046,1.452730517707625
5.05,40.13029764448732,92.61515974690869,12.532054120935102,35.09468894094233,0.8580468320277747,4.531212405977181,1.9076665071039884,32.587578547643,2.748178495345022,1.3364028926290357
5.1,40.21888019824963,92.6877219796439,12.726487847350757,35.10845329309021,0.8409920201917448,4.520282422085184,1.9598335886146203,32.49189088921818,2.932551009429847,1.2890335224337215
5.15,40.36457970260549,92.55504213845198,12.60008540938463,35.263462648058976,0.858265521839754,4.445634518154788,1.9468171365290599,32.46587900810925,2.6775981911294715,1.3315324796595356
5.2,40.46164556000634,92.03536474512116,12.78780764417004,36.65463830212364,0.8577253684390346,4.509856665654614,1.9005672640313667,32.64499414480607,2.7740512770502623,1.3303306063838003
5.25,40.33028888334797,92.65124746866512,12.717739439474801,36.09340322949463,0.8666263822304079,4.557979704027242,1.9548443633686674,32.483576227751875,2.6917560027578875,1.1756151418242706
5.3,40.65989477025974,92.81193639332253,12.872703872503532,35.81910059774176,0.8499054503292758,4.437457390961046,1.9292367383277829,33.212226090255356,2.539764806100502,1.2697426693572473
5.35,39.863471328132746,92.55266398866904,12.586458742027075,34.64053180413071,0.8698437364561309,4.514625846292766,1.9040090256816593,32.68888910788068,2.7500417454562034,1.213380031429879
5.4,40.301767650101475,93.02745243459142,12.72772410953016,34.99917162535224,0.8931493681139658,4.594187876961206,1.9400368730026625,33.10235205381018,2.648971977782978,1.1826840189392394
5.45,40.40801820142402,92.22547957645915,12.428899141246777,35.336011979926596,0.9095478998151313,4.440239816590486,1.9902038616480533,32.93246880036575,2.7068188473938877,1.1435351430803993
5.5,40.212161314343504,92.75013838430289,12.359899138416335,34.90360536334302,0.9087337838395597,4.588946819733634,1.9890666865036213,32.98974341175693,2.748007859935405,1.1311157191237784
5.55,41.250270639809294,92.34708906506071,12.941507495629146,35.840553347470895,0.8890052574599984,4.619598893411209,1.9823284979731615,33.46277414309096,2.674839635414318,1.2638630227959957
5.6,40.61723452567642,92.88998136174507,12.573293147326547,35.78375168688443,0.9183038511563021,4.511900369702708,1.9630965128947546,32.8384791732986,2.6692893193418827,1.116418781206798
5.65,40.732790409174015,92.80175610073708,12.72476071007955,34.81563563465862,0.9169978425048466,4.5073896375454146,1.9739794781386877,33.133948122600785,2.5602618125574628,1.2190655485300483
5.7,40.48255407728864,93.12206830815384,12.558991968216263,36.458605474888586,0.9359031617736756,4.592645423739862,1.9601433269635569,32.75110032880587,2.6726384242044565,1.1199862520511086
5.75,40.624866837766454,92.81983837657495,12.385853083734567,35.73567960291453,0.9323157308571703,4.522133446691183,1.9251032312880691,33.374402911031545,2.587042824619751,1.000751164748849
5.8,40.265298903850294,92.61708494989196,12.539760242662577,34.49678587412474,0.9287886362071907,4.394706845029249,1.9321527525506699,33.59977049859277,2.428204255007053,1.0884313695942043
5.85,40.74294140575284,92.61848742020284,12.900511112569262,35.7141125195913,0.9520679465677504,4.53251138153344,1.9421576702659795,32.94249700705195,2.6398611450707756,0.9598878022407051
5.9,40.44188986348788,92.70187241818181,12.685047401217966,35.98965624257282,0.9704466291025401,4.5691591070999955,2.003461342489723,32.5391744289546,2.6496716304850803,1.0852068199935527
5.95,40.55330450844995,92.65989065233197,12.122821617596877,36.51636676656619,0.9692471229730902,4.587786687472766,1.9947608968713078,32.45358955455315,2.6626289998208152,1.0017019956601263
6.0,39.86990897213966,93.1474969614977,12.50121318263308,35.641619040736096,0.9732674391037103,4.4929414473275955,1.9310955347052219,32.357426519485564,2.702672567255724,1.0684145472877251
6.05,40.5177128313666,93.15277040895224,13.00510372627318,36.49968857520524,0.9717683029238725,4.531939207417204,1.9661173133721632,32.55745719201962,2.5755249747262092,1.0963598041844524
6.1,41.32169525484118,92.48285310723226,12.510589139394229,36.0932481403953,0.9730627130353544,4.609040111420915,1.9534530656744775,33.14089846056835,2.539170163740493,0.8245372200083929
6.15,41.02216879752237,92.88971208359345,12.118589016963424,35.08366402693253,0.972624134508939,4.549074274584109,1.961885896064366,33.1990658016673,2.569567934837502,0.908186987322447
6.2,41.4451665803356,92.91886489996294,13.04656091411897,35.05537440718599,0.9595987023988813,4.463148340057863,1.9514571430895153,33.9393878596526,2.395264696701266,0.8300732756054703
6.25,41.41441898592672,92.73103100979176,12.748413144721823,36.87340619919175,0.9593091871260921,4.6312790403868656,2.0107005261703637,32.2474112241563,2.316242445508412,1.0812925628304628
6.3,41.13792510364347,93.05902291724976,12.564985516114707,36.96625946139701,0.9741160958704559,4.546271756184237,1.9689457173044647,32.84361713179894,2.39541760201119,0.8552708829446627
6.35,40.74539626630277,93.33777144017729,12.493917254560925,36.39639521269079,0.9494797261019702,4.626638529368851,1.9769724916529579,32.56105099569559,2.5191459657961173,0.7672261518664539
6.4,40.65186750013143,93.21860195370442,12.86171866626134,37.25847250760912,0.9422488655878424,4.479434128174121,1.978182098468924,32.55036759898949,2.347283730691679,1.0336889068662416
6.45,41.33464356512464,93.35550039047955,12.459947943201913,36.992053457686175,0.9374976373674034,4.5578474133283695,1.9415794553628543,33.27667265681229,2.4204502094212947,0.7785024181024991
6.5,41.08120333050716,92.86219246846377,12.886895199512658,36.77174402113418,0.9279630463001858,4.597584652649435,1.9766189767286948,33.17495168138705,2.411926762985459,0.6890778152395273
6.55,41.91304161495097,93.07400500528058,12.739619177298326,35.69589068416193,0.9202855748959994,4.56361428573094,2.006173226191747,33.95203300309283,2.3683052388022463,0.7085173196730143
6.6,40.91299716592051,92.8965272117317,12.669769344026127,37.586240023209534,0.9233988756901946,4.499653537637832,2.0194173115297445,32.137152000199656,2.229101509002735,0.7951433988102493
6.65,41.744068246041266,93.17085009946982,12.649376858109614,36.78990731823737,0.9111707188379962,4.4291649275755365,1.941726452577138,33.22654116186738,2.341131302278608,0.769994992834834
6.7,40.99733197503511,93.21640108331299,12.573469147227057,36.18448973501137,0.9126497284813618,4.6654563761944345,1.9315185982966392,33.16167592044254,2.2622557049648826,0.6822622274970429
6.75,41.61457312428329,93.39703589866981,12.882896333660618,36.02669147958812,0.9027132185680615,4.590578076282778,1.9798477761637343,33.24403210448324,2.4143441903139027,0.693317776836293
6.8,41.63962599292675,93.50847961229256,12.409615298792044,36.71395468696075,0.9127535779635759,4.647286988179505,2.012157794702397,33.72796349415763,2.3510788942848415,0.7195308318963421
6.85,40.658504025948865,93.37537334473146,12.225006634008071,35.40401109855404,0.9179409074545267,4.63452989343694,1.990559771262239,33.057570323761674,2.211124392480611,0.8045552497276485
6.9,41.00439587996654,93.01110108954647,12.788799487876872,37.10288994598352,0.908435692775919,4.616098922388349,2.001061708291809,32.828242972501165,2.3650798167276736,0.7088689654200366
6.95,40.831275274808455,92.9111069179988,12.797829968144656,35.98480397625779,0.8875466376631109,4.562433645757591,1.9407174989940292,32.594203210228756,2.2330126958429393,0.6209355995574715
7.0,40.770184465118746,93.40215362862448,12.764542708645884,36.95073173976559,0.9197290740097389,4.612472956532473,1.9652286414340094,32.35010795568269,2.053389599220612,0.6317259927762093
7.05,41.44659112289889,93.67026934883027,12.750667383776165,36.36499089894703,0.9149717785945437,4.670359366947643,1.917359303782435,32.89870635486853,2.1623787605026425,0.6958277991818136
7.1,41.11547466147185,93.31192342258664,12.572682000544932,36.58366659791931,0.9019258513435975,4.590655050627044,1.979813507483593,33.2705058570277,2.280914106281474,0.7531580264402442
7.15,41.28840500467774,92.9592471344245,12.854115058224362,36.27737177865363,0.9232317033419998,4.700990623104235,1.9199980695437526,33.245093096714776,2.0658876454809496,0.5151469452855917
7.2,41.42893544102947,93.88525040341773,12.650120030766935,36.732610457460325,0.8963714570089857,4.498084223467425,2.025731994665658,33.34544044872543,2.107340717797016,0.6776790867367074
7.25,40.57257133841347,93.50937014057692,12.544049792003287,38.20611143914969,0.9245831560110195,4.492742701681877,2.033215225191682,31.897411836480703,1.9852879115197837,0.5488447327005093
7.3,41.69971802403083,93.45275361371198,12.59214071114545,37.89097347763811,0.9090292036818282,4.649496018029603,1.9915992302733236,33.025737723881846,1.9792194216762726,0.4295375797818401
7.35,41.288454999791796,93.1409162648536,13.179622951468042,37.20726323441996,0.8794265549142177,4.542087725317363,1.9428029440049734,32.79996445815011,1.989772288064066,0.3996075890120147
7.4,41.37754623520636,93.45989545587273,12.24523984978078,36.97892741923818,0.9049913395272817,4.714759731932416,2.0002425569421414,33.00384757792131,1.9394962287729618,0.6383425456526555
7.45,41.56313278584678,93.6504862612963,12.808314525928703,37.62488786159006,0.893453666657843,4.673293547181194,2.045526983979425,32.89608788523158,1.9693862511188254,0.634420384350848
7.5,41.704217391077925,93.62743563797696,12.267922794039148,37.86204708774076,0.8863490776750672,4.689147155534042,2.0047976538231844,33.02650454161827,2.139062662760083,0.45949865178537785
7.55,41.30036518158094,93.35461527284322,12.66484234769786,36.52712187118466,0.8786521510820945,4.647745019593292,2.026838404205876,33.295978886834774,1.9782660168250514,0.4752663683729108
7.6,40.587620113226635,93.53321863461649,12.587596149578099,37.090519588985494,0.8800479617397402,4.540115904649511,1.9774878976484715,33.078943317031,2.0251536477166887,0.3372099058088045
7.65,41.26162447115223,93.41637242725474,12.179016809198222,35.905892216934234,0.8697695158424966,4.496528545201018,1.9666511681746484,33.84154618291872,2.030814053776265,0.5286790997373205
7.7,41.48021114147987,94.00929483635292,12.801862409555644,38.00377375816625,0.8472707780318863,4.6864308173723055,1.9913968257557761,32.240480641540536,1.8360150238111712,0.45372738829983
7.75,41.01341557373134,93.8398444071546,12.614183451116821,38.699260690513476,0.8797086425701223,4.507309061183127,1.9364473097807422,31.97267113623869,1.8394033900650366,0.3204704819106464
7.8,41.33276959960634,93.5079047447812,12.188737641043199,37.34574411145028,0.8567877841281719,4.692892179781266,2.062887444270286,32.75764036901871,1.9484655879889954,0.45006736455765317
7.85,41.35142251787111,93.36972461781059,12.927896927593775,35.83792190044167,0.8475980033751573,4.638437631001728,1.9998611035185003,33.84265827414278,1.8177826338527463,0.31195680747959914
7.9,41.05767049953911,93.75414033844422,13.081001068256104,37.78719423280127,0.8407604063106089,4.594093073081534,2.022372068690478,32.3686106849355,1.9058751016854787,0.4575303368439939
7.95,41.77845065881921,93.58431766422129,13.098920279004757,36.76344853348174,0.8626295511708272,4.6255443234158,1.9832113314007846,33.585346832864644,1.9655426105558598,0.3165273831080582
8.0,41.28752428125989,93.62577164154717,12.82029504298369,36.967103645608816,0.8384583412114517,4.627237859636751,1.9514420990900683,32.403678326979836,1.6964488472711583,0.4207477508227215
8.05,41.33487784352905,93.46936186564129,12.74626717300605,37.90498529570762,0.8572468843880913,4.58742040536506,2.0411776007295512,32.236084627028696,1.7659294838729316,0.3325854232336558
8.1,41.407015873966785,93.52312104889702,13.071399615699095,37.6792985841635,0.8522185780168312,4.685296549792072,1.9653389431042254,33.29442540626899,1.7603173917347554,0.18703949764536268
8.15,42.03477778536244,93.83943928232505,13.16412891467817,37.193957780279355,0.8581736825147329,4.683375298950088,2.0101762081843173,33.49719911163746,1.715862845360627,0.4478832054298954
8.2,41.56483460664849,93.75484127329022,13.031334710891736,37.11522661369639,0.8578091980136381,4.60931236932176,2.0136429497169424,32.89516484833811,1.691233462216732,0.44459293077898887
8.25,41.487910641040926,94.46846919350013,12.51670855923389,37.692144894654895,0.8710104353320275,4.564000336797982,2.0031985397917387,32.89040693872929,1.6825150398826787,0.31154165790238575
8.3,41.38799622002158,94.01567418137785,12.806841963986894,37.35133439958776,0.8870094540176715,4.678330053876761,1.978062273418227,32.63730435706772,1.70279995985833,0.3684477050841413
8.35,41.729382013768934,93.6019477123623,12.870712667614514,36.8951855246309,0.8984663425993856,4.478537624505786,1.9977208075253645,33.30160844787029,1.6994759415410634,0.3752051923538839
8.4,41.90905380825291,93.52871353359417,12.312673064865319,37.472338200723044,0.8957127108329606,4.626388872117594,1.9743083685681986,32.89784668925734,1.744960769995228,0.37189959476405177
8.45,41.815698615030215,94.03490687413881,12.886672793206008,37.97611693354369,0.9131932595140696,4.643939535172819,2.027675458171477,32.76476822314642,1.6492264786883075,0.4668740655550344
8.5,41.95150334791174,93.85887897579883,13.341741078619963,37.646787187795965,0.9342104694518113,4.549619293423124,2.02112685582964,33.112744510183454,1.7233910170158577,0.3571957728072706
8.55,41.830409035487136,94.31368644315526,12.937792888253176,36.81484805460957,0.9122277598240353,4.65744859160194,2.0039087539024782,33.768600916641944,1.5694546314515727,0.2907284855225059
8.6,41.19612577795029,94.07399579942062,13.150341097539313,38.529279808221276,0.9395613787724996,4.597085080631742,1.9880606921165618,32.343325919296646,1.5037193117246357,0.3495299725775145
8.65,41.300502563403164,93.53060201809669,12.831777738225211,35.95218221375304,0.9346668231526374,4.565518738071019,2.0688811858005836,33.59268788629694,1.5586532456391708,0.2773257241153328
8.7,41.52770522828406,93.79406834230306,12.771792672983237,37.589094515237,0.9384131808852226,4.655592438897435,1.967140118103616,32.90034924138031,1.6034211056742158,0.2233738416700276
8.75,41.38189869874798,93.90278623397434,12.889669407224327,37.49939448472461,0.9577208892660652,4.532142087821986,1.9603939836670747,33.036446064855625,1.6188373362515809,0.40356782425910687
8.8,41.19641688511155,94.20478826735194,12.594848861988202,38.069024394751956,0.9498139019459698,4.6488647374147964,2.0047924601943645,32.21426121114215,1.6505943784139858,0.3465675122642176
8.85,40.9120431344585,93.85375310785494,12.562103253961174,38.390009850332824,0.9422147523829671,4.477148268379975,2.000021381655119,31.883754492571907,1.5409719088375986,0.15322830371045176
8.9,41.24266138533457,94.17779763822082,13.12381856894015,38.81691011769387,0.9713099819239617,4.6125531888736,2.0411903108680844,32.23624098547441,1.5621896861476965,0.2462660881849978
8.95,41.63779192107331,93.82819759480732,13.154576835395934,37.56059941113865,0.9636319785941934,4.597309478633027,2.0281362162101897,32.93686698561674,1.5958601384745283,0.3608511513642091
9.0,41.5623249778764,94.18641294533306,12.568106694339566,38.50077757988291,0.9255992379400774,4.561511119116614,2.0101182011943948,32.52320194723945,1.4086535210856874,0.1748940331540285
9.05,41.43794815564107,94.2999943014362,13.062110931745991,38.257908140435084,0.9262565060671473,4.616430556980558,2.0247120803990324,32.49734729619073,1.4390495166725892,0.24000521711687625
9.1,41.683355695230915,94.59547621784144,12.8025016442691,36.95320039465729,0.9455315150913771,4.587385308944622,2.0246262121144056,33.62364968811109,1.6626400545921576,0.5138800951224407
9.15,41.53649203674283,94.31409289023314,12.913539791655497,39.511875353054116,0.9288034899776305,4.6544940391469485,2.0737169910625135,32.371489897954106,1.4948295246103849,0.27567115549040405
9.2,42.08318786747704,94.07110520598694,12.947883823924181,37.204349502268904,0.9441819645399206,4.623820564486645,2.0186499761136756,33.362045152870316,1.452777481104615,0.3904501762887974
9.25,41.68369254360884,94.67111956265651,13.085814018881443,38.53490997683696,0.9272901981616279,4.616318872330085,1.9910452591260452,32.166214007824614,1.4692777218230855,0.42602595689882095
9.3,41.93206515881109,94.27464253116959,12.862100203088755,38.54377770368404,0.9174863249492899,4.605561208869049,2.017850797690331,32.618547786379175,1.2770534330130319,0.2359383672281961
9.35,41.847175539551515,94.53638682130254,13.197944339282419,38.493068598584024,0.8961044865846397,4.558558573047461,1.9337432463858015,32.52885211914637,1.3185568792514382,0.33303078772898786
9.4,41.220982347488736,94.21231855963154,12.926713482041189,37.98300858958787,0.909510690727519,4.567566181932076,2.01172171925037,32.69803907104446,1.2759907579722334,0.480002313228042
9.45,41.70393563909643,94.41077366900191,13.009797225544814,38.937150469481054,0.8842601243462541,4.599300100578654,2.0458777695814785,32.668939134171524,1.3774169008974628,0.3561030346395928
9.5,41.216117353074274,94.21028789484008,12.649831144160958,37.29444844769407,0.9120092078306133,4.5726853717676965,2.031530583346832,32.53097968211997,1.3016523718775233,0.5130934168449544
9.55,41.80140122670468,94.51368475904852,13.401923744829544,38.36902766738132,0.8990861842941512,4.648401056892395,2.0227881014366504,32.584889468090786,1.3263355290438525,0.2778748562474179
9.6,41.47627244349466,94.65658074744643,12.983791806392702,38.04856698143343,0.882222969422592,4.585895124193799,2.03366453329921,32.29233906495497,1.2816567817178834,0.47802820479519514
9.65,41.88911914543422,94.35441686441008,13.048924580748475,37.997110654374445,0.9005994848809328,4.601367743944821,2.0476305542935553,33.043971463710804,1.1645634142078933,0.3414848753000226
9.7,41.1433273885403,94.36284661377248,12.472587877298423,38.79905038108612,0.9174986783360093,4.493117888978303,2.0576249034524627,32.05375521273177,1.3539211887505453,0.3202952960913195
9.75,41.669912025241096,94.61227395378343,12.67294289324017,39.2806366234447,0.8880318540867619,4.632289600492321,2.028616149170121,32.452051686111105,1.130908990091512,0.4044875825663227
9.8,41.996197890866235,94.33927505199667,13.192291661293256,38.313363568319254,0.8976131547007178,4.5391900528037725,2.006023211876475,33.0758348739814,1.202753972637961,0.35160150262979906
9.85,42.05605649469919,94.18849155234085,12.958588437840191,39.12712582018449,0.8861012656022551,4.509813911048345,1.9464044744600288,32.777441361361745,1.1451331009618613,0.36142479948553236
9.9,41.335115220597515,94.67871373742783,12.412516358758108,38.64223873585066,0.8924494138761412,4.6694050703238466,2.0454483979705436,31.899718345856936,1.1697255734316345,0.41511084259835773
9.95,41.794724101662304,94.58591617093353,13.154600207952962,38.00904295960111,0.8727902347615186,4.610700268766955,2.031841798987062,32.77404894464786,1.2463208508811234,0.24020929767210777
10.0,41.755255286118505,94.60304006776407,12.763215382397824,38.479687572575635,0.8899179130364889,4.625626234362308,2.02123749028816,32.92444074768183,1.319378973442231,0.3298897225170955
10.05,42.35542379408769,94.7879255327745,13.256273547384694,38.47667502082778,0.8885666474681347,4.592376389158154,1.9962775832996842,33.02378726375693,1.0864443888458268,0.46096332979160104
10.1,41.20237191359804,94.84523703843382,12.885570354772478,38.224476172448085,0.9071882043136994,4.557572482171891,2.046124538416274,31.961388810533116,1.1578401372278326,0.49225303616427385
10.15,41.420581393336555,94.66217895106968,12.962865392521671,39.03766028041373,0.8604119018589771,4.544389162254593,2.0096931511433977,32.3746943822692,1.0539358723491181,0.45168988463658855
10.2,42.781888311319484,94.44413044350708,13.210187668864236,38.927319131831965,0.8744139898727745,4.6058650286542715,2.016607249920478,33.137581745540764,1.1372226907250544,0.45575774795239077
10.25,41.574727034529595,94.587507806931,12.695121683323734,37.67471633783106,0.8880168692504736,4.62497190234394,2.0161793174480978,33.171777665276444,1.1835604536122954,0.4768400316202683
10.3,41.00195834180368,94.91574049010251,12.675206951763842,37.656966323982374,0.8639324616194797,4.550781594819967,2.031562970400304,32.455933923020055,1.2316893689425548,0.5326217005149044
10.35,41.50884755542053,94.82593340484387,12.87815666825987,39.134935418130965,0.8587509757253139,4.677026763750958,1.9838062739582811,32.12751905416538,0.9937162037828058,0.35361758377121727
10.4,40.8065097527488,94.67671430566877,13.137980409336407,38.29133529215597,0.8444007641113664,4.5385865625891295,2.035328967640659,32.36860667661946,1.2004903550512596,0.43904070296207715
10.45,41.723696527983556,94.64036705532808,12.602446779002761,39.09760113511971,0.836483927975666,4.464486767892162,1.9970022915110903,32.05496256912023,1.0722500660605059,0.4862836136890986
10.5,41.90013071836184,95.01321697553622,12.522312201861558,39.45671734656011,0.8194136542061007,4.442487832753072,1.9982207057740458,32.70985037849035,1.0467538731588766,0.5206884288255462
10.55,41.451402961513274,94.82563377925666,13.149072395816399,38.04404689709448,0.8277961343186829,4.442115134185058,2.0455072294227357,32.48468377062272,1.1438114678284792,0.3493806969064509
10.6,41.51437804890551,95.09149963951717,12.796410323918726,37.9690415241908,0.8182314631460829,4.516106161453972,1.9892437138626466,32.76817414080675,1.183325394241913,0.4310170900044311
10.65,42.01310098246878,95.14541585990497,12.85302956064757,40.15237793528286,0.8275572783849959,4.524517975948047,2.045731701065205,32.15492282272823,1.120238776173595,0.5440535280816233
10.7,40.98295661663018,94.8696212853115,12.49083091911201,39.249287262095656,0.8140131698988292,4.576850425331748,2.0223926072311897,31.630442739419195,1.0363285358483876,0.6405269837371274
10.75,41.203614035037525,95.20748019814758,12.789423612040798,38.732384383827316,0.8164064883868277,4.531584787077728,1.9700157885910594,31.951458785379216,1.111588679248146,0.540343803995521
10.8,41.62501014080293,95.02689560646029,12.961337193952996,38.394512207807814,0.816961978486347,4.58126202067674,2.0605001558036147,32.53126883166251,1.0579271916642017,0.5351991158705871
10.85,41.49663017292356,95.08144525015992,13.199994011560259,38.713131548679556,0.8235077836147674,4.5306637246437615,2.028964579937941,32.125644059003875,1.1609261646329376,0.645809109902172
10.9,41.54688762750762,94.48951856711072,12.778538327595488,38.258960455191364,0.8209569333407424,4.526043986780573,2.0315611261918116,33.11394148137158,1.1956835268375183,0.5925069977348248
10.95,41.355064281736794,94.81616323886166,13.389550596715239,39.732421288217864,0.8191344587368129,4.4877967538313595,2.050024291939292,31.68333234962913,1.188013728087752,0.7047228821831137
11.0,41.72160485564268,94.85189521271,12.807990411568136,38.59172876890158,0.8389250353687792,4.6049705498945315,2.0648426042810404,32.89978239999738,1.1033504143301534,0.632293939710011
11.05,41.58978522976991,95.02356782628314,12.812340609154687,39.922100145147,0.8577490613616151,4.4248466881134405,2.025945032195362,32.15273461554415,1.192969281440425,0.5767715990671851
11.1,41.96806382301653,95.1539693702857,13.37142072935396,38.8971060130008,0.8545088155802779,4.531888035593786,2.038470370039348,32.75342167016738,1.0200975214848276,0.7958543521601531
11.15,41.757849529890194,95.18633166475107,13.043723497796718,38.467869844685254,0.8544482779213892,4.49993749650522,2.0311141332005698,32.660686083584395,1.2434187595050106,0.7976231068571483
11.2,41.70683263661953,95.24108058431557,12.856793931867283,38.92022040427535,0.8693772207821351,4.554722609367325,2.0097086075541366,32.49725728148133,1.0180708186807892,0.6388459916387039
11.25,41.147319124084106,95.02051970834584,12.95997174542044,37.401878580861876,0.8558105781378129,4.503502355629358,1.9724969109131456,32.83025491270782,0.9375904647719546,0.7637778852357702
11.3,41.91423602361359,95.38669579550927,13.341305330959736,39.17416784442815,0.8873199099181144,4.5021597828902475,2.026442300528313,32.51826366041448,1.209432297632215,0.7230088851137707
11.35,41.62683879026351,95.68826349918756,13.373769243814062,39.15927910519809,0.8923092571546888,4.48248636068625,2.061346690201384,31.88549234420208,1.0439786992148175,0.8158603286763968
11.4,41.53501522127473,95.16968358100661,12.806796800910904,39.87508478146609,0.8929187732749759,4.578878522425584,2.0374517392651956,31.421221028338845,1.1111150550149727,0.7136330277967656
11.45,42.00173246981514,95.11415820195086,13.004238786856149,37.99649882626712,0.9010955544543655,4.492181004274132,1.987891529579585,33.47664400738537,1.0206917829215036,0.8709366349033993
11.5,41.38412722707798,95.13078970071113,13.041060120277397,40.149110717576505,0.9098500856154952,4.60692464392701,2.0527916271135487,30.974066026073693,1.2940185667557902,0.9144227872896135
11.55,42.03413235702296,95.34552394374049,12.775754845815463,39.92885981479703,0.9300240868222648,4.501745021522621,2.010522927066059,32.28245761032686,1.252842182421575,0.760800826201477
11.6,42.11726876148995,95.2147374032955,13.012312726522106,40.24925038950798,0.9328054263098278,4.483336420085293,1.9569765740402656,32.086878582992775,1.2333792148312595,0.8598778281650062
11.65,41.87107666417073,94.93560407985564,13.031606608068474,39.3540375577442,0.9086193739758293,4.469888158946027,2.0501940825755116,32.41669641189278,1.1196721856184937,0.9697123325328739
11.7,41.32706132933935,95.02599297197544,13.31908092019142,40.118535473414184,0.9120480614733127,4.508996161534476,1.9912044615314264,31.318348689550472,1.1943974127242085,0.810386866619297
11.75,40.900756252964065,95.66720993218149,13.339641299568312,38.396544086486955,0.9093204109090558,4.43632825447124,2.0728859422506987,32.14285676892004,1.1154229942468794,0.8551255365405158
11.8,41.93866738422066,95.75457901059903,12.959014314733725,39.942896998017986,0.9207979636598743,4.476824166419214,2.053784807507845,32.20523820402708,1.2135550951256322,0.9797691162216434
11.85,41.598223388497246,95.85605759263443,12.991642277803734,38.92103965480549,0.9077077165553532,4.464973187229918,2.0123944508249965,33.05419075084748,1.0954264058896948,0.9322235025857549
11.9,41.34396923993325,95.53460253806867,13.214879152513099,38.3217028173998,0.9012525047828484,4.48036307630245,2.0328753630681478,32.46855675759601,1.2599300431410607,0.8373428490161866
11.95,41.927854346842274,95.2522277676286,12.90625500436924,38.70735641370399,0.9003198879599049,4.478171515538108,2.091667584965656,33.055465103796735,1.1015426671612145,0.9560585675904489
12.0,41.27905879081404,95.41236425298086,13.20340030317234,39.514436959992025,0.8801210835619161,4.47756943742359,2.04879502811613,31.47064814361348,1.1162658629883366,1.1397152374914294
12.05,41.37976120279259,95.17092190251724,13.038058669434587,38.949605366783544,0.8970659172133228,4.45538298220395,2.025774942958869,32.43603022534489,1.1127389488109187,1.1833549309969376
12.1,41.64640344386054,95.18318265617027,12.821230806502577,39.80565475734983,0.8741537614260617,4.540023504827399,2.1051270316096264,32.05018273820065,1.1718423986346322,0.9856682564304924
12.15,41.06303162706269,95.65134444078795,12.827951520004108,38.29216385948049,0.8582049930429704,4.467398811696792,2.0217926646178794,32.29621200001958,1.1321454952665053,0.9818572285628537
12.2,41.55390082921906,95.74414097341877,13.433022749150073,38.08422669478957,0.8604936855941425,4.594521585270334,2.035521863421704,32.778169418665115,1.209303609106906,1.0365289677379836
12.25,41.86199514160063,96.12082695731081,13.035744462319116,40.548868552582434,0.873801681577133,4.437231507376994,1.9897725794513679,32.23549538349863,1.139330129449551,1.2355203682527363
12.3,41.655524532062316,95.63229176213594,13.488550532242064,40.23559694735044,0.8506185809005621,4.487813880402689,1.967398347284011,31.863389799636284,1.2489187344753054,1.1768716217255737
12.35,41.871996208029124,95.33542409290791,12.954085543987652,38.88290531035245,0.8644502527852812,4.3827157944567405,2.008776175159791,32.3984072626467,1.3153287772332134,1.2446916784518383
12.4,41.87062422406618,95.66620633688827,13.159476849067772,39.629525917547205,0.8435776715122885,4.506287133040859,2.018322220847113,32.09412798467737,1.2086205501955105,1.2254327241242866
12.45,41.595669022709124,95.64786121425888,13.688423701124078,40.35922912671891,0.8407935217867846,4.375905504986708,2.026797035687807,31.900152873214203,1.3887902627421105,1.0578626199611303
12.5,40.54699753248644,95.61744356627673,12.829596471642933,39.95269868869411,0.8574352183677795,4.441400087966633,1.9740645742594585,31.19417217575591,1.3107794840237414,1.105265505202011
12.55,40.91260290059466,95.84795018528426,12.62327417314161,39.776433695087206,0.8388815373294604,4.394029115668314,2.0362059532424834,31.060629245232906,1.4012310867975366,1.1431168897338422
12.6,41.752901436641125,95.48014175188443,13.423354726914543,40.45243946820513,0.8592631653349629,4.432825407991425,1.9911916294390013,31.90031379390725,1.2352089528840389,1.1745539207876616
12.65,40.79778940546645,95.83817306226028,12.898580733890192,39.18722142020662,0.8538050422901309,4.387390589603025,2.034072164958655,31.351186548853057,1.1174541473382493,1.1794002420276721
12.7,41.26291803770433,95.99010201590036,13.103782795401028,39.733167713161606,0.8390742407086031,4.349860228131218,2.0435543493971653,31.841972025941768,1.2044747338388084,1.2059003750945574
12.75,41.44668692926625,96.20384975938082,12.966297729048884,39.71120515717209,0.8481355598530946,4.376620902979304,2.0033271994598585,31.6824957660307,1.2235537698491656,1.3191176290577205
12.8,41.881966048621045,95.94819896481702,13.183578276029728,39.544855595361874,0.8410633074577334,4.48107667667768,1.9859533332654888,32.225918241715696,1.2068810378772594,1.2955793580400239
12.85,41.07592560963226,96.1530603157888,12.882537905544794,39.47474808391769,0.8500866746454291,4.412248657301943,2.0608423374687326,31.570503942424644,1.1190035167028245,1.39894001401944
12.9,41.085615633688846,95.80296685506775,13.078848963780672,39.81017538586742,0.8658035127767908,4.302476470492574,2.0403747214610712,31.940458698404154,1.3885098207587703,1.3379404150302374
12.95,41.31703514659606,95.85951436654854,13.239761142393482,39.794540991542505,0.83524100049717,4.441091403771236,2.0183907101427025,31.84617899037693,1.1699029169722654,1.2799090156928576
13.0,41.352064260120855,96.29418011982561,12.878861447358652,39.04757665756389,0.8417781155225278,4.317404540912726,2.0575178926911146,32.43024763158995,1.40547999977757,1.3650769561187843
13.05,41.179258407492966,95.63593897889,12.959537141259291,40.35348524314797,0.8302645966618435,4.410990285064751,2.0155861471675642,32.10504271808091,1.5187722328783175,1.2448441582502712
13.1,41.60703846683435,95.89965198299757,13.051396837300747,39.11924210078084,0.8244969617476956,4.395038767135048,1.9940859291871416,32.291879650567566,1.2947079265421282,1.1963003479394634
13.15,40.8767346074567,96.30413580318651,12.784600426826263,39.66016322873943,0.8160415143456565,4.394254822646694,1.9822525668527258,31.84418571274072,1.401308632828694,1.4479413389116071
13.2,41.245403309788514,95.9908186070168,13.03986769163387,39.61617617638285,0.8012950568929627,4.463862501345575,2.0086617906348754,31.597841651406817,1.3520170213606018,1.4929144813082647
13.25,41.37680192592658,95.99375342496337,13.178981782050126,40.083221604501,0.8090577759342817,4.2983156902485975,2.0346291874458777,31.971524124269514,1.4639485300190098,1.4319033539908916
13.3,41.032019634433226,96.02036333585137,13.053037211713676,38.35858332154029,0.7949428836623246,4.380013284575064,2.052741850852047,31.97306314266593,1.316368593488494,1.4092198249447652
13.35,41.45729467048262,96.13751172244841,13.088742841383729,40.474730131998356,0.7819149272406807,4.414241248066005,2.0113155959380893,31.531642119680534,1.4157751228589368,1.347264017348346
13.4,41.21428025597603,96.40125708152505,13.155222580093843,39.386067127376535,0.7999471063156032,4.295335069467314,2.046554987504986,31.9882379693699,1.5306614188480743,1.561745426859573
13.45,41.3812892002189,96.38229121842014,12.99985746289155,40.72253147041201,0.7847421883463358,4.284429732634343,2.0032738639693872,31.535519922976885,1.451951154237633,1.521250613491625
13.5,41.23982744577864,96.17557968945138,13.34004107347253,39.54216795879007,0.777883645682912,4.307153238147012,1.9857844930252584,31.484212366771594,1.3407030579162937,1.51826863072234
13.55,41.33251142671211,96.46727933062505,13.529895437099253,39.85074835807303,0.7953175885284182,4.339048616894203,1.9695633255477778,31.514885630287136,1.5856900624480637,1.5073761569969808
13.6,40.842729275344055,96.3010819557317,13.058362901929032,41.232373557677775,0.7573999642081202,4.230087240662259,1.9930756383551973,30.868335353086806,1.3982695328516819,1.4826357203316514
13.65,40.88455740373283,96.45184994654306,13.29962603201808,39.70609983101,0.7962968161772771,4.342922596434876,1.9697030786287564,31.361850618273,1.5240546159760409,1.4432215446151078
13.7,41.47022358604931,96.00139833640323,13.12220676766808,40.77467332398586,0.7738096100883254,4.220429851920398,2.0675379885489114,31.055392029385324,1.580387235312903,1.5642185052877555
13.75,41.283313457650074,96.71453424641967,13.27708618682603,39.9417801736333,0.7913561422351483,4.377599849548447,2.01991126936218,31.634056725385562,1.5595880254588128,1.5122653452123953
13.8,40.758971487206004,96.35633918971344,13.580586844593254,40.21194019435022,0.7876742516814502,4.32586576447277,2.003333592213287,31.09631448656105,1.7694166646818097,1.5323950126787849
13.85,41.0951033678913,95.63558290466669,13.319675352672958,39.97654443188242,0.7905771809821651,4.404841162658874,2.0573217016774903,31.535715545349348,1.6417386412778798,1.7143159932463536
13.9,40.03906538206512,96.75890074964688,12.752853089559627,40.52722379441405,0.8254366889144357,4.325166524233555,1.9660432151982674,30.56589573687304,1.5836403290738035,1.5832232060886036
13.95,40.788673538401135,96.3666257506295,13.31325829176955,39.45973742555466,0.8409596892949055,4.261714766868145,2.000436541818543,31.608180070998113,1.6650116699592687,1.4006116762671488
14.0,41.354824024420665,96.28781588318824,13.511551451665722,39.256384987569305,0.8254553740343354,4.227015284923387,2.063970661767749,31.829912199927634,1.6507325915203683,1.5633811071761465
14.05,40.863684380292376,96.25658020430741,13.151179910503586,39.503552366348345,0.8412907757275708,4.2841799783751116,1.999078912192969,31.42710471016078,1.6547855252015289,1.5350558390169342
14.1,41.00462851829877,96.53917222376052,13.459112482895037,40.02541690945766,0.8466525012991651,4.262917625437261,2.0762143067016057,31.63161958711956,1.6881908780824082,1.6125669908882168
14.15,39.781821763880004,96.2284794492647,13.041222439673147,39.80583750422246,0.8748703468354766,4.3307631561605415,2.025777919819398,30.425327384222676,1.6515581993773973,1.517855107209785
14.2,40.62982817544813,96.32761406954671,12.845677544420719,40.462121006024866,0.836073699105766,4.19871631151447,2.04077757776266,30.81382872658949,1.7210521510256669,1.674172350533253
14.25,40.966259072679264,96.35486919685329,13.255750421505534,40.88248552720634,0.8718235467547344,4.3705031278287905,2.041026845385018,30.59661949703136,1.6814454140100759,1.6230303505872736
14.3,40.87099670629603,96.44125897842152,12.784833667536521,39.29005793618008,0.8632398123846576,4.3205286023483795,2.0003984791848,31.624942010685572,1.5881756821240307,1.6154492937172025
14.35,41.118421735747646,96.40673462001611,13.167465570022243,39.4630786342263,0.8471793561723009,4.226601428722089,1.9850646953393727,31.831150033884455,1.849188210307277,1.6718185350744394
14.4,40.7818483001304,96.7699400326777,13.552515683040225,38.97489969146372,0.8726831660221406,4.341431317648692,1.9955987419461119,31.21081569559471,1.7309432753568617,1.6596070135836762
14.45,40.57588999031989,96.64568571518281,12.756780256077738,41.40467925967165,0.8992270062624026,4.181302427775518,1.9687951807097164,30.166670108486013,1.8057951798870333,1.6603970116079347
14.5,40.18501887621604,96.69734673242479,12.91773252523741,40.19956399693102,0.8678273145154255,4.23533286079111,1.995755803688923,30.337923271556416,1.7520456865429932,1.6582131431263696
14.55,40.57294434352231,96.77288922748086,12.983034907798404,40.324760373655806,0.8824895203327515,4.141096360116205,1.9969244057753222,31.12944431041565,1.7729379238982925,1.6790338069500876
14.6,40.24115681081914,96.6180998980421,13.228833077285199,39.05308243146685,0.8833281361757088,4.323146199799452,2.0470459299190438,30.771688971402423,1.7667889969739954,1.7121574062439588
14.65,39.99433283348562,96.40741453785571,13.156256483020895,39.99246494548175,0.8638329374928437,4.108157011532124,2.01346987344591,30.621145888828437,1.9443890309237095,1.7057160590538638
14.7,40.34873305124425,97.13488695549766,13.60082361351685,40.35153919274648,0.859788860893806,4.1152031341535285,2.0658433141644736,30.928678802209063,1.982377817583659,1.7815322047003477
14.75,41.20574904409432,96.93656297372418,13.493032135609393,39.81964286638147,0.8318108924476576,4.158157991566781,1.9294621474996456,31.69560899638238,1.9079991482243603,1.6502762370797683
14.8,40.531081813079915,97.12895499483439,13.381677640852816,40.75080077212694,0.8373354319735212,4.270173555369515,1.9570113750297573,30.594568925165497,1.8817573225930546,1.7152153982831009
14.85,40.6574149081167,97.00543518275931,13.29757529884201,41.61704811276659,0.8503860902602901,4.242700889789702,1.982127109779689,30.482121177025835,1.808042927275523,1.8935302997169157
14.9,40.39248787066011,96.6527434156613,13.362572874580334,39.336507714689354,0.8343188869954966,4.187292492459953,2.0368176909197846,31.500266766436663,2.025946406377466,1.6957643841676096
14.95,39.84322120212339,96.20186077219095,13.052162895072499,39.28440185029058,0.8322691509945102,4.235647975073277,1.9880015684826478,30.812252813205518,1.9270272565722344,1.6995857520651807
15.0,40.88100748349347,96.50258338971126,13.485549497714432,39.38557075412999,0.8242768130331402,4.1621147106221885,1.946490783763039,31.03692648582837,1.910619146205154,1.5989291054630859
15.05,39.64570705557528,96.98997344444386,12.996339954223536,41.12420233448581,0.844822604750051,4.188897072629318,1.9823992741411278,30.15147512659526,2.0211892516153585,1.642703288831682
15.1,40.30909022064672,96.82637453518036,13.486640291433554,40.72910041557591,0.8101692777542924,4.257151899638361,1.9530432295920988,30.646417228657988,2.0109580330655845,1.6905313853946866
15.15,40.48141388267078,96.76780072636944,13.577594039653315,39.90389685236105,0.8321755424398973,4.13773386812384,1.9463713641908174,31.045894787252543,1.9350671316255117,1.740518424424823
15.2,40.49540012957594,96.26980953390948,13.337067110785538,40.02339859982907,0.8128415671044026,4.101017484910356,2.0473447600410877,30.515550517209842,1.9648524109507133,1.748098382971128
15.25,40.11119819897535,96.91133380197086,13.243436822648876,39.424992711417865,0.8304247126675691,4.169677664165276,1.9760223151539944,30.909583726998363,2.1209990707623114,1.720113320862393
15.3,39.73297044857916,96.6650716280518,13.390802627417683,40.618084614077546,0.7950481345913004,4.180314518904951,1.990946729494519,29.941072144216644,2.060344603363783,1.7557096795273575
15.35,39.86664233023783,96.7753041553094,12.578810125938157,39.727352660910576,0.8122273327516549,4.136955307489022,1.982135962354008,30.357146469385043,2.1722954116818802,1.6083309987759231
15.4,40.057114433279004,97.18979219538616,13.37310533995779,39.809174723370084,0.8053985039607136,4.184949893313018,1.976543280222718,30.73700240693977,2.16181437656263,1.7238166513470807
15.45,39.9968960724524,96.74082983759118,13.272712106614419,40.41505158969018,0.8120623682515381,4.107078731813437,1.9580228419875931,30.318365859230997,2.252446540431384,1.6817271868947008
15.5,40.584990111306865,96.7855248875653,13.29181354899351,39.854698890887484,0.8250966838047971,4.121203507191256,1.97306922783696,31.03843892771559,2.1205489150173205,1.686139720792998
15.55,39.841892182777464,97.08615686500302,13.48440705529664,39.81894197069179,0.8145630766242904,4.1304114151751286,1.9916420339769494,30.786342886239822,2.224133209299991,1.6421883102458654
15.6,40.296892291337976,97.27864950538331,13.292566365662076,39.98766992815307,0.823815355499961,4.119554977861822,2.0232118853713335,30.938676928249677,2.2748828656382862,1.5894971342418382
15.65,40.1538646059578,96.98066228673036,13.029492253637294,40.533591578011205,0.7995948271964268,4.19347673411185,2.0081949467303506,30.394065219627286,2.1919304396814843,1.5626368063139153
15.7,40.47038282685503,97.46890491744041,13.282526384917086,41.125689925083265,0.7954186980494011,4.113212170050019,1.9423101605066937,30.329471962257607,2.3503048777009137,1.679160042580491
