time_s,boat_speed,heading_deg,wind_speed,wind_angle_deg,foil_height_m,foil_rake_deg,daggerboard_depth_m,vmg,pitch_deg,roll_deg
0.0,37.34015754222583,89.73299144727811,12.010693141297264,29.869154738092508,0.8418014617150809,3.9428174894324473,1.793240214174442,32.805767983828794,1.9652941550925747,0.92232259288471
0.05,36.70772003252622,90.2613373027758,11.8609367290434,29.9667121541423,0.8872116992520241,4.018846474357407,1.786773836608871,31.742852133566505,1.971677537553049,0.9923000767687646
0.1,36.70783991704977,90.14606252324249,11.923507378572793,30.29683116443195,0.8741584610026829,4.102519663348809,1.71892298148908,32.039316986373855,2.049339347197696,0.9317731796859096
0.15,36.839058334246374,90.07470275144377,11.643919741530159,30.390159142501524,0.891749846766631,4.042750372113909,1.782863761909822,32.21682511531518,2.1320447836860286,1.0544269274699258
0.2,36.889694604849,89.60432010645988,12.014798011445905,29.702681109871936,0.9123735710061269,3.995508810595274,1.814864769013411,31.79018443883546,2.0420785432600814,1.0286643503791253
0.25,36.49543051795461,89.5574804426316,11.745851485005216,30.895895259445865,0.8806206635782272,4.092510676785333,1.8185202665893918,31.35962497155997,2.103296264791087,1.2167137486429067
0.3,37.143136547291256,90.09908252269067,11.949130118349578,30.240832243194497,0.9081130762657859,4.1051683446360645,1.844765266566089,31.83633695509549,2.139216745547845,1.1109455504084944
0.35,37.90695757050283,90.11939145776276,12.11769699514885,29.17161728477131,0.9219121892331741,4.004704050730584,1.765895103386289,33.045321084838974,2.0487637429411594,1.0119271432789831
0.4,37.31021228659613,89.81057076149669,12.29472647686318,29.850729027335394,0.9298376838702637,4.1378825246271544,1.8224163522652779,32.38060168046962,2.2315279191025312,1.0278113031980918
0.45,37.54839844817568,89.8296500004609,11.599288884973737,30.131953415810777,0.9091938891803856,4.013693026581275,1.7949268961182316,32.85159347650694,2.0708347008715453,1.2771915242040615
0.5,37.642294863961425,89.95684443700624,11.724980236940619,30.609018825900765,0.9185093021989542,4.097727866872231,1.8194062391910832,32.21173750307654,2.1103145896878006,1.2987348927301898
0.55,37.15810340587483,90.4927374037993,12.077828992857444,30.914191850678005,0.9108231829454795,4.173909888763943,1.8230830710564123,31.61207140444588,2.16309838754278,1.2212609800700587
0.6,36.85199312534963,90.68889173915241,11.762889472214669,31.073338408535367,0.9016647123605522,3.925176372386096,1.814119509516937,31.453960883674746,2.231008513946701,1.0914199033235084
0.65,37.20642829813296,90.37903175924605,12.229678734991557,30.23569288746567,0.8983690122027774,4.132260788410783,1.8694185489732233,32.50044374772402,2.1551549841893816,1.2332174364564283
0.7,37.894408312358,90.44960897212432,12.098192616485132,30.54566068278197,0.8980015832120928,3.96106882988986,1.8082302552895486,33.262660263176485,2.1173383050813768,1.139882942382526
0.75,37.597607623228015,90.4235320543439,11.911998317266688,31.09036123500571,0.9055748026598878,4.090238173093504,1.8169375632757088,32.42223577843106,2.448005415174333,1.2957816849115753
0.8,37.934471587141054,90.32276235054681,11.835520021628668,30.71125597556126,0.9012682218373865,4.23233167111228,1.7869723898108403,32.55398065270157,2.2986161173764295,1.188190528880343
0.85,37.45389056404762,90.29373762107454,12.553159181141943,31.496318164058952,0.871043276913803,4.076134254838823,1.877105581631729,32.09267013482498,2.0996283441877392,1.3137185137268177
0.9,37.645906880047846,90.42242807830647,12.40942384209817,31.346291894924175,0.9038884869690154,4.005389531886929,1.8180368217582334,32.494017711128244,2.302373866966116,1.2800209767011774
0.95,37.97398746801435,90.52293186725237,12.120352135892032,30.78578912059883,0.8590935348976777,4.046254835626512,1.8497640740056338,32.80985506185368,2.335562008871796,1.4717337040623377
1.0,38.149154957560754,90.20142334198712,11.801124363548764,31.490013442440148,0.8651622195239971,4.096370661737584,1.7798915923726377,32.97745302282976,2.410031495167706,1.261837207001674
1.05,37.69823821602776,90.43202276334382,12.351450291589304,31.368577830525012,0.8408638097453821,4.125177382410497,1.8392991870480764,32.43419832309443,2.446438506900077,1.477691003908678
1.1,37.71624074516625,90.27336133197458,12.282710800452694,30.569602276107236,0.856969753553582,4.140606076255711,1.827329856845885,32.25461034141085,2.397578246009719,1.2848888005080816
1.15,38.391566729423985,90.61785058318353,11.85068708842742,31.350976582455313,0.8720935313552788,4.028498646565983,1.8206023512952976,32.786196103980416,2.3412864573968797,1.2928956183590463
1.2,37.82199498595306,90.66081653829235,11.959423063673531,31.066510774312757,0.8630020319676966,4.136363355230712,1.8334635702809217,32.278135328351105,2.520548740245831,1.3152326703705264
1.25,37.36450213059667,90.40420172116092,12.20381955226739,31.502384068671994,0.8678766618730832,4.078594602806895,1.882183083564992,32.51232325039574,2.604752129558767,1.4549422683230568
1.3,38.082360813825815,91.18073242154769,11.757048708214807,31.222927988203097,0.8630731403560314,4.153320756458941,1.8739977860917494,32.541925503089054,2.322070326547701,1.5474307796745035
1.35,37.95604036520103,90.62567453876926,12.26561538845119,30.718839921577036,0.8605451144124917,4.070157448775791,1.8596743975297851,32.94333016165152,2.393738875028222,1.4177302685735875
1.4,38.54038521785425,90.9387208249323,11.402360184487872,31.414170992931343,0.9090116744685431,4.173950128955959,1.8104738208938331,33.338225389798005,2.554378128297705,1.3307764036845735
1.45,37.154177877742136,90.48377226826696,11.93065899236181,32.65580836709767,0.8685776568273514,4.163223632179468,1.8529778836856485,31.57525982486018,2.602232818959972,1.4998013188145616
1.5,38.014527096390175,91.19516681327542,12.519155405771157,31.31979702660268,0.8641791546896938,4.219840687208065,1.8435410093578823,32.307764599892785,2.5054603249724203,1.5389206485871523
1.55,38.488665554011526,90.83868656170065,12.016436535516789,32.037310397545106,0.8949149511879076,4.188525528561425,1.8465116842247606,32.610679799164835,2.6069134758217243,1.644470632195325
1.6,38.200788519178694,90.51469364789176,12.39348460814677,31.815717303268865,0.8846681637784165,4.324042610158741,1.8222527491398697,32.18006942422693,2.6036323285344443,1.5678944913217954
1.65,39.17073000696984,90.55244517588163,12.410269364070484,31.76743945377328,0.882861116616374,4.279860941569266,1.8847349659513641,32.736207640122835,2.5764492148025684,1.5057617798489986
1.7,38.581613563805135,90.49341435807966,12.042576397352075,32.000653480219974,0.8570780489276834,4.23475270648804,1.8758970329567253,32.45525601196947,2.5604217741734243,1.533940210646249
1.75,38.48073583682143,90.72861481305631,11.753299381887068,31.275349925242697,0.8632325681546165,4.1770690478157375,1.8336539873503668,32.85824911306295,2.654943650914505,1.5911499537197615
1.8,38.53242064015093,91.07849931432254,12.248052920784003,32.180516478617655,0.8473497552900432,4.310114147569978,1.8694260598873604,32.9799476618598,2.6454140606967926,1.7266765453011232
1.85,38.57513010667728,90.37068554921295,12.522714699592335,31.624729001394176,0.8541698911876163,4.24470326385515,1.8580705190233344,32.98155787560317,2.592930885201521,1.6079707063523943
1.9,38.260967699149276,90.76766768030978,12.093561371323288,30.18738748684328,0.8623729570333167,4.215005288208197,1.8628097780514608,32.84064537165822,2.5135243175902104,1.6168235961631554
1.95,38.507993667992565,91.20159541534765,11.833884803917579,31.579786930758008,0.8642914202379619,4.170111005972136,1.827354982971702,33.0242125230551,2.5683829281186736,1.651264895602979
2.0,38.315699402550436,91.04763706087665,12.394364659411945,32.4069600294078,0.8523919201904402,4.295738685372439,1.865734155870617,32.33424368396874,2.651778377915227,1.4898124368627457
2.05,38.88665788433907,90.96751203431482,12.467416899122892,31.452074444498933,0.8379180502874318,4.2192671648017726,1.868245550811984,32.669602764854034,2.692054027232851,1.5995924399509074
2.1,38.75915197538456,91.1955203474599,12.294606367561292,31.28859120987053,0.8596946246724337,4.1557732006100805,1.8389351383290404,33.23589950526224,2.641023288628478,1.5266709765535436
2.15,38.15535469175106,91.10223639630814,12.060358639004386,32.94282103263158,0.8218232766123663,4.221071094028127,1.8566589580304267,31.901717155468056,2.6802002147520607,1.7414645398067576
2.2,38.521602220427,90.79856092979581,12.318016495323171,34.08313419750741,0.851798230047061,4.202548972100128,1.898587887982239,31.85676162015357,2.8740454381303535,1.5693195326758533
2.25,37.782494214896076,91.05480602559422,11.487723793672448,33.173592930036676,0.8356466392138908,4.264591923759968,1.874193738819438,31.450523485051267,2.6713226648214263,1.6668747320715165
2.3,38.76028508250556,90.82524112113445,11.85469847198969,31.943705514347347,0.8345931879659667,4.260578295147369,1.8375236450918218,32.8523686806308,2.8231624923122474,1.665672028088248
2.35,39.05577428200813,90.89017803994003,12.2741926284049,32.4994409997522,0.8314337035317146,4.28359667078995,1.828805435083221,33.16566794754092,2.823081543740462,1.7489613352072604
2.4,38.7891400878029,90.77546253225997,12.251877662657785,32.72519608873399,0.8508938966437107,4.353701089270428,1.8302358243798966,33.0397062500995,2.830094255198028,1.7350024091711693
2.45,39.21139734383203,91.07007256743397,12.141848322089992,33.62661623895909,0.8242020723669462,4.329858885656663,1.8672044889080324,32.7649008705554,2.8770596874509153,1.6586198099601503
2.5,38.76758226542603,91.34023411197991,12.170875890649802,32.79693818946437,0.8344339766684999,4.237556987874885,1.8756710783051376,32.54520303508692,2.661223406582981,1.5779923501165602
2.55,38.59672361540002,91.15859212405456,12.263307013974307,33.11391532478256,0.8391357445968025,4.211990644501608,1.859600517638277,32.53408187630435,2.7852144811889787,1.554013823191985
2.6,39.41976589027689,91.26458253259548,12.32832846078303,33.31980031957991,0.8535758145280603,4.405817324551287,1.8604649318409792,33.19654997130909,2.831379963347862,1.6741689408230622
2.65,38.33556554379465,91.37098123909807,12.398487396800087,31.595829558976288,0.860518973222699,4.278950350557201,1.8857440499010993,32.557415627907595,2.784557155155386,1.7500378809778678
2.7,38.855611385815195,91.25205512785203,11.968988088526398,32.87885242074087,0.8741892598632317,4.258624108893818,1.8970052139189375,32.76539665826041,2.8011887568213036,1.75763526609717
2.75,40.1925374746055,91.42150247801953,12.552978290360327,32.02815858099925,0.903205557493139,4.283489771929716,1.9249802354547205,33.8533790097376,2.7803821822926684,1.71181437084537
2.8,38.97108647940783,91.49951021802896,11.827458336056862,32.51236365694755,0.885142128505411,4.3292017164877885,1.8872851280778433,32.41330574482238,2.8086671942793284,1.716461628828144
2.85,38.89875875175121,91.76575254474217,12.218306253662227,34.28957894331431,0.8899773594631841,4.264071178961516,1.88699541663318,32.25012987539676,2.950126455456206,1.683136780419789
2.9,39.172239832874865,91.18049452039568,12.26180566804002,33.741445426695755,0.9138986481695526,4.307088099992079,1.872035825184815,32.56575133816113,2.7325150870558317,1.764983295146655
2.95,39.2790449441019,91.18644837187809,12.20709084880977,32.174044563240656,0.8929930324619691,4.28398763039603,1.8884642419920288,33.229065786747704,3.0215921446754175,1.7492980921288526
3.0,39.22869768613606,91.0888291117522,12.342249850512463,33.629813474172735,0.9148597568094687,4.429925778043895,1.8641062563541242,32.489573023596456,2.9139263960169832,1.74784103863998
3.05,38.565007747215176,91.37914304119491,12.621381364311386,33.06330792274955,0.9301234655798734,4.34365705308657,1.8899144543553272,31.969027885136228,2.876256913846421,1.7754643348968184
3.1,39.061043991353834,91.78268637956961,12.486659866589576,31.34288317544726,0.9235808871296078,4.279735498620884,1.8721957820494508,33.24153663947904,2.905944952283982,1.7325256178121702
3.15,39.833739672758114,91.4059711517871,12.618957041720485,32.40877654866324,0.98136257928217,4.328459929243622,1.8693138630785264,33.54264678222687,2.8764530084420854,1.7336331571171808
3.2,38.877938245990066,91.21890209400284,12.356749978264856,33.67811889692318,0.9680607469508651,4.299370250125429,1.8947390126875143,32.37477599433574,2.7716788069288465,1.6142899567714535
3.25,39.358690101796824,91.63610057277317,12.364364825363898,33.23471311525098,0.938022882629988,4.244132134922545,1.9226449616577077,33.12459162490555,2.8076137729701243,1.516472050476638
3.3,39.82624420982198,91.48649363728863,12.207121715607135,34.25087343846685,0.9285120510204946,4.294795653168799,1.8886193640926197,33.043050943314135,2.886236123869372,1.84360068732813
3.35,39.664089258533366,91.3882536938625,12.817775721529259,32.13370176822529,0.9624248582083016,4.445861150789819,1.889786866932347,33.15143930857037,3.139877764542647,1.874948263455595
3.4,39.561301854740535,91.68001431573212,12.523436992583623,33.379116929762006,0.9753345411961982,4.311607246280312,1.880668612890137,32.93617919650765,2.8843741092528354,1.7344198010343648
3.45,39.46092873648649,91.33169827695639,12.364867169342883,33.2927283708099,0.9418604347713309,4.352701763311438,1.910774934564299,32.92181938185997,2.870450388187716,1.5781232420622564
3.5,39.66553468360057,91.86179356425896,12.028937615388825,33.91881952439574,0.9452548454352441,4.3030211915385905,1.9074058268868659,33.05725681347075,2.853120984325865,1.6070196011564097
3.55,39.99730233587237,90.97377593928476,12.41378356978039,33.887142303746636,0.9171426310688806,4.437660676110282,1.8865356436338727,32.94723172483509,2.823334250529132,1.6646221365467513
3.6,39.41350137967037,91.90489166903954,12.000894631362982,34.46656295804931,0.918594056387513,4.448100451888572,1.9071763894792477,32.66677616325329,3.035239000672588,1.5805373665633538
3.65,39.29434872587287,91.63503119782972,11.915607662311364,32.8112966053407,0.9490838747000726,4.2991160529822325,1.9276474362815148,32.91198556998974,2.7713955855989623,1.8122896494069891
3.7,39.151256792820604,91.81643692035932,12.132386800474295,33.99153954035311,0.9110368228729735,4.342241999050188,1.8914866735138394,32.399172690511946,3.0269421529575555,1.5935072559698258
3.75,40.189093881228736,91.79734661482716,12.533690272443414,33.77004711244068,0.897633993448192,4.451572904724728,1.9199942571123734,33.12179046184376,2.816106970581797,1.5650546481880714
3.8,39.649214582929076,91.77244679920179,12.287824241285819,34.492594743338174,0.8965133469687424,4.507191643090132,1.8936992759345106,32.30956440442352,2.863437252005204,1.589791485531295
3.85,39.478254959097306,92.47073847922185,12.543953785017528,34.319477067600246,0.9172339327263258,4.366529996588366,1.9280622563809975,32.22426717299001,2.851170847916002,1.662510847818085
3.9,39.64006466153533,91.70261365764021,12.44942072792625,33.62859513305181,0.9056554904271871,4.290178021408218,1.9017603674641401,33.59021164248498,2.7402432222466717,1.7086137157375911
3.95,39.613924605156136,92.21537975633666,12.261288920182068,33.9885677297414,0.9267489213222933,4.462132640635643,1.9016940478751572,32.669349589292416,2.718759436684748,1.5944265209851585
4.0,39.378895988699554,92.02773597790193,11.98332622601106,35.020782996447466,0.9041734527034746,4.433760469272361,1.9144247420643934,32.22822499677743,2.8022183394580207,1.7130160741263099
4.05,39.86130874060783,92.03367258530821,12.19646142694572,34.77476089202308,0.9109740935141434,4.3156705857841215,1.9140074531883968,32.79511793483123,2.9280990400753173,1.4348084064508557
4.1,39.90487014330372,91.71658993654762,12.292582835527748,34.01410707349844,0.9055538507279036,4.313737989308293,1.8800039659716765,33.40783294080738,2.8605469258135323,1.5957372719520044
4.15,40.02745221338277,92.39727497934177,12.62468164620839,34.08243936954445,0.9063784549844782,4.455849333385873,1.982796301476433,32.85926292607285,2.9170028883754333,1.6522155444071494
4.2,40.265514440085376,92.14487092422695,12.399627892077318,33.435224025171266,0.9184243658349338,4.4485557196347525,1.942666763134777,33.902942855225014,2.8602560569419726,1.6435946880175925
4.25,39.992846179020226,91.70723131975397,12.246925007566203,35.0174565238617,0.9042666426213926,4.3772957680667215,1.8827701883634045,32.70983297117157,2.9591268941167503,1.5686558610513524
4.3,39.67370221023597,92.08154089511153,11.949624908954023,34.04359506584011,0.9041046481190251,4.306713785404886,1.927796090881282,32.80982879788237,2.82322938342766,1.4233105982837297
4.35,39.73501311120612,92.25428164746738,12.345126719833214,33.685437883758496,0.907182934507124,4.358169354433522,2.001521304355424,33.66124115275003,2.8174350461961675,1.5182577273710063
4.4,40.19051484158143,92.4153993453189,12.654744518419161,33.22986649722085,0.9011498499335641,4.402361801123082,1.857156306828037,33.72344661912846,2.854240626879722,1.494443058083925
4.45,39.606848298558255,92.36930804245871,12.688095769894218,34.48495888380775,0.8821598399328083,4.397145439002843,1.9681988076792556,32.385551189172176,2.8927258500946156,1.584647660785259
4.5,39.825949342777335,92.12630365413607,12.291561587063145,34.603052799605,0.9107391158373569,4.5748750275336105,1.9888732380177194,32.77227411664447,2.8497119649778813,1.4664526157792799
4.55,40.21619813771016,92.26417773739625,12.766827953201174,35.36104433163447,0.9049307178323391,4.422686861431324,1.918323186581137,32.83306578911345,2.798304370829684,1.436168629732984
4.6,40.24075878510233,92.1645040489944,12.475599930127022,35.552685296285354,0.8980544438700448,4.421004743123473,1.9419243669880977,32.86755114329688,2.8719228256171587,1.519781004101183
4.65,39.74783460431634,92.4490446290152,12.172151254680415,34.4833521975378,0.8990101430993505,4.471211060454261,1.9668324252004998,32.32476642928377,2.84346627888691,1.3134775474736886
4.7,39.95026003806068,92.43602623609475,12.52946418634574,32.94693011458289,0.8713561928380916,4.548913253321949,1.8930140429900835,33.4304718679575,3.004087862798372,1.2795338109969947
4.75,40.40511230884028,92.03551931727414,12.43408384837183,34.95995765088775,0.8938966113818716,4.520686928384434,1.912240983887415,33.21399524371789,2.904699005259346,1.4595386095969072
4.8,40.26112226984533,91.66580388649848,12.712776375169744,34.893752830762296,0.8793954784403084,4.481511217476626,1.8638645221629497,32.977238354343655,2.755745932576387,1.4321938505876568
4.85,40.53506281577136,92.6830836290337,12.728952404479285,34.654516406064964,0.8818771692972257,4.501621698146601,1.9684547272691704,33.345722971707936,2.8895447351488213,1.4386058899178455
4.9,40.1335592824782,92.00176174996201,12.347578114057482,34.62227337729221,0.8760768595409759,4.432589684048936,1.911750531063969,32.77312373698436,2.744209330856804,1.2491439532725257
4.95,40.079470195817095,92.41973943306148,12.479276451123805,34.3386461761862,0.8756345852259845,4.46589828087594,1.9222180958166772,32.78920833811108,2.832884932869434,1.3424886312820614
5.0,40.689689300716054,92.3440869682606,12.318509394192164,33.468679654799516,0.8517371862465528,4.563332983256745,1.937132993697593,33.91021771627203,2.9252048185186736,1.5642251707027177
5.05,40.13434147794684,91.81903129148665,12.643585227241694,35.23030740203111,0.8708606851764178,4.610325208781864,1.969200362784729,33.00674824084775,2.7458690386890994,1.4226927999738992
5.1,40.52851097858288,92.35517394414191,12.203648002938648,34.8516549019772,0.851035289783602,4.468419427877637,1.9769399384693243,33.00472836301166,2.747277884436812,1.2642758887486383
5.15,40.72790492609574,92.69899591337877,12.625779723169533,34.847312882152465,0.8426473138812567,4.475447485351158,1.9403360673369245,33.6513852666599,2.7847514625337157,1.2546444498070317
5.2,39.9001678806055,92.33257609514801,12.49588406426957,35.03747499226675,0.8567516543887953,4.511116950706416,1.9722534077464302,32.68562255212411,2.598575261818309,1.2024333518799897
5.25,40.250029710463046,92.81653919913865,12.215192545679097,35.83507683337217,0.8618953531233653,4.599951257823988,1.9488246477823088,32.719264635031685,2.8290318542272774,1.083056864211137
5.3,40.55970871825899,92.36218881205826,12.641860956035359,34.886335689480305,0.8639627111702477,4.474107953155014,1.98001858444018,33.23137489324242,2.5902721397415274,1.243457058940512
5.35,40.16297410246105,92.68437909471614,12.367884749885912,35.13391291910171,0.8855711980657935,4.515320062373247,1.9337325494461748,32.9557996423268,2.7218612789718253,1.2794580530392163
5.4,40.603255556854904,92.35328569938044,12.941256863142897,35.68214786464124,0.8703730060493798,4.619469546953542,1.9601412967612857,32.89637906315067,2.672558990052696,1.2761964272557256
5.45,40.70914774841257,92.6329402213217,12.613357202788375,33.615113826412696,0.909271918612177,4.427803806773169,1.9809256897484837,34.46986938656726,2.6788892640864073,1.2804467715932337
5.5,40.28248256707853,92.60388752292197,12.716161705938514,35.10952284909919,0.8781936377450889,4.460560245056288,1.8969765304463435,32.95596505779836,2.7421785729540695,1.0201430835693714
5.55,40.308442023660454,92.6934615207991,12.209786916741663,35.24446009733545,0.9010446816333272,4.542564750006293,1.9723562686131986,32.80741302291343,2.690209288073608,1.1316627009837854
5.6,40.66455300593944,92.98739712887865,12.352134253269,35.85347026994768,0.9145654429077793,4.50564603076621,1.9848308488086803,33.01668628244326,2.5045478781385535,1.131588833378462
5.65,41.08927006217029,93.04124945634445,12.580436837318315,35.82427151921905,0.9174772294194975,4.583103893764044,1.9649972401836504,32.878797468803896,2.635571238678032,1.1507299835206903
5.7,40.88688992614636,92.72819102905018,12.26562542470068,35.76441310435199,0.9529471207924872,4.485290624183338,1.9454975361397642,33.013407637162345,2.5961603764660293,1.0954260884767635
5.75,40.91572232194837,92.77494010538813,12.396082562922025,35.66165440571611,0.927208864966419,4.523397134007585,1.9770032396716748,33.20876535383766,2.5275193128706217,0.9187395150322653
5.8,41.45794871873411,92.45652317160318,12.407528564016857,35.66770803060031,0.9441431605836742,4.497569936523736,1.928940560268955,33.779187970445626,2.667296210356466,0.9618784725888126
5.85,40.55574122364874,92.99066302331083,12.784381634024117,34.90686421059646,0.9427425534560061,4.54799711869442,1.9692757008249535,33.34172793707256,2.487280142491294,1.0233399847661757
5.9,40.28343122737221,92.68591499879832,12.902087393439693,36.08461764557301,0.968693136426435,4.535062144613693,1.9880874621830522,32.434876849484056,2.6087103249110983,1.1093608961650026
5.95,40.84129205296475,92.94203686059208,12.501758395905773,34.95332838647171,0.9554068492998513,4.444783779505983,1.9806099621177893,33.00305406829726,2.653435189570617,1.1107470863911528
6.0,40.37618898521262,93.03562717234753,12.5791960462561,36.1436251854059,0.9608337379031534,4.606433265682567,1.9036202520701655,32.64586715967589,2.5451749153070007,0.9677557047070723
6.05,41.02584632072798,92.32610262814963,12.621199119780607,36.46599086658025,0.9700682447193854,4.476084572386849,2.012668594089858,33.35500677671218,2.600619972771658,0.9706487534801276
6.1,40.91726350722943,92.63648088653217,12.28749916235405,35.62155805542624,0.9635231935284146,4.521089136931837,1.9672507209108947,32.9764965439913,2.534928828093584,1.0154136312999766
6.15,41.54081390483056,92.95012584308778,12.531981101449194,35.23365303511475,0.9650188859415131,4.59644489701047,1.9612766627687293,33.6372191352784,2.6431920327028178,0.7996742163785544
6.2,40.71715314921032,92.64841777116536,12.694047061328542,37.40937200026963,0.9731796687161529,4.554453223130457,1.9096637106310639,32.40322214965125,2.3437929923461063,0.8535953242142831
6.25,41.31117563866609,93.22207480790053,12.768283098594988,34.79664108704205,0.9599508709469151,4.623381477811722,1.9640261078240635,34.07029373895129,2.3991332497714097,0.9186169844631541
6.3,41.943188335831735,92.81417306139087,12.866311629970285,35.84414307417551,0.938448942268331,4.537563633547994,2.0030145831506228,33.85263535851748,2.318389035525905,0.8801258520505979
6.35,41.30802002672763,93.32668952484559,12.624809071209732,36.04605699941982,0.9407115141610753,4.4877479256128225,1.9740097298815962,33.293783184126696,2.4206894516212336,0.8727508964131435
6.4,41.43335776921572,92.87461440665437,13.068359020066323,36.81766668477141,0.9424748673679119,4.648211827480298,1.9326099013339706,33.59966347801595,2.3246880959688685,0.8961280621226706
6.45,41.53555582471759,93.00141625595607,12.60560685227162,37.23305344136585,0.9441853771467589,4.509651022861676,1.928159550691451,32.78357126947929,2.405131165105483,0.769526823580941
6.5,40.995449492850085,92.89444131164761,12.364731373313337,37.40403074660145,0.9504899771316678,4.541147572967593,1.9405955873249032,32.60664028778947,2.3711611295411896,0.6992811327914227
6.55,41.0405369029426,93.28207026522021,12.614398004364801,36.72577521618313,0.9252611965315539,4.54788855902551,1.979574251383148,32.63984818172088,2.46342790045563,0.8581198128734239
6.6,40.75788139401511,93.35884744470253,12.518381852445636,36.72905322021176,0.9089467595037872,4.493484769011273,1.9841163840741627,32.440332125419985,2.2426378578712236,0.6805227358923984
6.65,40.62397030845975,93.11687792505286,12.159886826072894,37.40437775944809,0.9163322581441748,4.5312332238224355,1.9611279627997307,31.977735975054877,2.3643202567219084,0.7170770140766776
6.7,41.33265359097226,92.74409472054943,12.343974009308045,36.66509645651815,0.921010867967309,4.503021273304634,1.9923271760577945,32.85520217724182,2.1709158721218142,0.7740754862570307
6.75,41.43915331995996,93.23503635523275,12.949759397111894,37.377963963145916,0.898900260772839,4.578906440332668,1.976324698173423,33.176096172727796,2.2919649498571735,0.7680181735259245
6.8,40.718690595146505,93.26345456730331,12.589105178455592,37.96027877151632,0.9174560703070885,4.5217785657438085,1.9631224108364265,31.763983531398832,2.361676440609399,0.617393517639428
6.85,41.15984310203059,92.80922537396403,12.849639054216192,36.92395221299715,0.9069009859655182,4.5547098088224,2.0327786160069357,33.318368812666904,2.243173282993839,0.6750354066841957
6.9,41.16291550428171,93.20187620250279,12.194589029256187,37.18647795076013,0.9174654521344515,4.564587245106118,1.9988017998511736,32.67487275845065,2.2388215280643684,0.6882560077387724
6.95,41.04697145411166,93.25215510892366,12.456001948300198,37.75218956675727,0.9239550485888844,4.660146226709012,1.9729227046783173,32.232437543830095,2.0285904631526837,0.7913848190627445
7.0,41.50447374016551,93.04390027220843,12.86119856829525,37.0913442752179,0.91889259068541,4.633787724769112,1.9945659449661515,32.720358868251466,2.1765801041627904,0.6627237262953533
7.05,41.70630312855526,93.42189695101803,12.952608896927517,37.09722490001962,0.8995295337899085,4.532986005085175,2.0504424678950017,32.88408448956159,2.23481224962635,0.7209539033641399
7.1,41.38978480498134,93.19316893910016,12.753667784463167,37.49272179937499,0.9083240015545969,4.51110977517871,1.949578546450771,32.80779448284038,2.196057300296236,0.7184551449923223
7.15,41.79946089979732,93.27104534586654,12.7722739671954,37.38433555509588,0.9076528849360501,4.539231524549991,1.9714087643494425,32.600290248073996,2.0742857913013193,0.6371214103373445
7.2,41.02537317507532,93.17122013382368,12.7971022917389,38.24397308285182,0.8855216043158501,4.6542062935146715,1.951864491314114,32.111283399288396,2.1914088727465493,0.6332407068935031
7.25,41.52620943421361,93.38979852387195,12.69061389262041,36.47612662064281,0.9007479210448611,4.580707982508893,2.0388892758387285,33.36651014438789,2.0284468287444244,0.6539284010532843
7.3,41.223076605877836,93.56541108334277,12.061066495161032,38.04116442246704,0.8945549824890926,4.692159313961148,2.02274332329104,32.46339190520692,2.0526329144484765,0.36372907237494334
7.35,41.20290158617474,93.07526059955794,12.899384892436315,37.758069683648145,0.8870314203538928,4.5095526727416555,2.012354004909746,32.34812949429853,2.055994498760412,0.633190725195065
7.4,41.51143466977059,93.3011484128808,12.617486749352542,36.99071080847461,0.8950785870031375,4.711241216045021,1.9911837477728636,33.33231710247011,1.9624611338151416,0.45366737453608325
7.45,40.83057644168773,93.2584983566038,12.688914967129502,38.13916030066692,0.8869459012736822,4.664881151636806,1.9959679528019554,32.27988881671897,2.047911734040898,0.7127029062879197
7.5,41.328402761819774,93.34409087693194,12.580033153738999,36.341768353282426,0.9110714652020714,4.678764210098735,2.0209769582096695,33.44533223376124,2.033725550628908,0.42311781940841475
7.55,41.37034203659502,93.41278231980787,12.996615571950839,37.83681719216565,0.8919500399152688,4.5540246728470475,2.018670808193752,32.215065538250315,1.9847374643151423,0.5356009536824504
7.6,40.787429287632726,93.46323925941105,12.310682396168913,36.86441755847634,0.8724329759151824,4.644968374289793,2.042661329929627,32.89878490085808,2.065032989260243,0.5750807598864799
7.65,41.13070711844783,93.12609545260597,12.384150614940816,36.60493765276968,0.8780242433610246,4.493976980118769,2.0040956610783014,32.93844341340396,1.8680140825740545,0.4729685898416177
7.7,41.730566237026,93.79485634478084,12.838808125151791,35.925590707062625,0.8606318177242519,4.650150762778391,1.992536793593168,34.05836911552322,1.9926083776680006,0.5201220421446799
7.75,41.61457409057237,93.92564901736154,12.803100683502288,37.47076146083349,0.8746816242913552,4.650522839759415,1.9819587189042787,33.35433016205081,1.8008758885012908,0.4098095989348738
7.8,41.31204361907331,93.5411592019286,12.798769175754584,37.52734096289916,0.867380459178564,4.624242931596105,1.9743819831781637,32.70985607281766,1.9131677541312448,0.4251735152008218
7.85,41.24758920145556,93.83573579948016,12.619492855389227,36.83545223343071,0.8463648734272519,4.63664787872117,1.978763773745743,32.780457391559494,1.887406421648464,0.4703331106400097
7.9,41.59265457245295,93.59992134114106,12.824390478562893,36.947965046880675,0.8583911055179883,4.627206409810937,2.0588096682512163,33.30690276927432,1.8778551858073482,0.3713439110643689
7.95,41.3139280488396,93.85396864493889,12.782389081918488,37.42450983983364,0.8358834864185529,4.651596734671251,2.004381020003985,32.9660489575833,1.7661126657795154,0.3491179046005148
8.0,41.19064373371859,93.88442919163832,12.355280594643778,37.49979262110384,0.8557118475424915,4.5893127526882305,2.0476457536587076,32.64414729706037,1.9175180828742613,0.2343841806392425
8.05,41.32888686472373,93.53453658079658,12.86780671386819,38.14490674167351,0.8618728730050216,4.7041627346870225,2.0567900874044858,32.29530877284672,1.7684323078120971,0.5736204970332193
8.1,41.68934114775128,93.93398854320301,13.104121303848435,38.19138104792611,0.8543433061253464,4.624985906330167,1.9654993995551604,32.91430585547121,1.7888008211043644,0.39760585801577436
8.15,42.366639107383236,93.71248904563883,12.465691318817889,37.513670667192635,0.8546212629116687,4.595658950060554,1.959414602099936,33.50139309517371,1.7813184066100816,0.33690517210350096
8.2,41.54446387433887,93.8193476627169,12.58662336233307,38.08048943087306,0.8708468760434849,4.524176890324802,1.9873527352688658,33.05243843133969,1.824696359503937,0.3475861086528298
8.25,41.37172793959419,94.00345916408925,12.97367630064666,37.854033808781125,0.8800042791438242,4.566624780404792,2.0034660643503397,32.748765792242565,1.6205816876588026,0.30581103636373513
8.3,41.77936584440098,93.79721901760787,12.853742101657378,36.794907061957055,0.9102576651584526,4.535698686535787,1.948419221089957,33.595153114303095,1.7920091040011155,0.3589533977647963
8.35,41.945847361390335,93.88643945967858,13.135820083336212,37.5468932996066,0.8904928031574179,4.5236439275987275,2.0347379325555743,33.38821784282607,1.7403405145996498,0.31246453385290124
8.4,42.07879041919972,94.08511437489159,13.095873372718419,37.86980762032457,0.9070751252035975,4.532643794547695,1.9874718508554432,33.32695710300877,1.7172677862920693,0.5186438566142562
8.45,41.438111820097625,94.11871211528755,12.91659721275998,38.62276607935632,0.9137965031962579,4.704195461552367,2.000130322776105,32.0371844435895,1.5841879246685195,0.24648930823548393
8.5,41.44430597625433,94.12738005680706,12.709429534946313,36.63468521578807,0.9152180380794201,4.6205623101522,2.085349143459729,33.66319214738785,1.7237454326308606,0.23590657600714943
8.55,41.60620676116237,93.84971191231739,12.819846303676133,39.018799994913635,0.9333946695146129,4.6366296559480285,1.9611734183074363,32.002116305980465,1.5191687918698833,0.20283496769679
8.6,41.234960982564,94.11022829926277,12.634668423684605,36.406796657965614,0.9379184142372363,4.4967485458358745,1.9964965057131359,33.01786214642029,1.5880792663857999,0.33254875548666063
8.65,41.42975585419769,94.10182941302938,12.652468998739437,38.350384532721776,0.9432509298944516,4.531712506019732,2.0335845272531605,32.239607984701124,1.6031045385638532,0.356445384550315
8.7,41.822558059928575,94.21405614451422,12.704179504164058,38.29948086059895,0.9519934183832639,4.57865143528839,2.002766443150516,32.654208464302826,1.5160253179290337,0.24567197393747078
8.75,41.619793762174645,93.79663878321016,12.60810728606609,39.55544444812214,0.9420943688455857,4.585414570805719,2.001898541770273,31.98612898774919,1.5248398904775706,0.21788472903114442
8.8,41.46785024976772,93.94603581320848,12.559680659454465,38.561264743161644,0.9503674496389583,4.608153161528765,2.0427666244533524,32.740073853697425,1.420421323536967,0.15040906189554293
8.85,41.16064277320904,94.55618361194846,13.057010561766717,38.16352103401712,0.9621229469386496,4.62210037092324,2.0100923412822094,32.27027544469117,1.5913325035194017,0.35860073726014335
8.9,41.63101576888169,93.92902517016765,12.343453412028754,36.565766048062585,0.9553339610767448,4.667172653753537,2.0068093394878987,33.596472101673726,1.3996063482276733,0.2614515314237184
8.95,41.30568403173718,94.27624594209345,12.565652031749421,38.67809350729967,0.9666463970639496,4.664588787171672,2.0318662423825984,32.29590191425152,1.4498388520908183,0.33358216999811235
9.0,41.40717854085242,94.36376196351573,13.002378478448302,38.26012952636462,0.953981634126142,4.577084735158881,2.022287951861906,32.652297312438755,1.4977610055291308,0.4403163627803104
9.05,41.35018109300633,93.91555971190617,13.028590846059704,38.53943852195883,0.9365487706954578,4.5777342403981125,2.020744252867003,32.208857340635056,1.5318090334873609,0.3198144045116456
9.1,41.745957623552,94.50704719261806,13.048867155490544,37.13463536519505,0.945297038948405,4.5604603643444745,2.010726847179766,33.294834107949065,1.375484826202569,0.33535008361286506
9.15,41.463421764405346,93.7931233421519,12.84857936820685,38.391893675685345,0.9361706989761793,4.561265926267677,1.9829998988420758,32.28208507392134,1.4275159197065865,0.4212224186781846
9.2,41.40933313984872,94.56296430160025,12.722788315875608,37.93042019794034,0.9147343386665815,4.573942576345206,1.9892109825622086,32.86411443290224,1.5619516735409793,0.43948581356426
9.25,41.3493021861078,94.52285964083146,12.666401332715333,37.64906922330604,0.9203500140861723,4.550915359197344,2.0184079657023686,32.90594941039629,1.5616883726239834,0.30815982378828244
9.3,42.05639323784748,94.2889845057408,13.100150523718503,38.42829823681388,0.9166733627276451,4.660529788662576,2.005157124020012,33.16507502642301,1.300253226286335,0.3489353681318981
9.35,41.68808947214266,94.36743674718554,12.959323585362043,38.15065187499797,0.9041927592077218,4.64688350950883,2.027345098224373,32.459220289244755,1.445545147408322,0.3574136419578616
9.4,42.41766949019782,94.47498786239194,12.771174987429323,37.595288391628614,0.9080959987547167,4.627221412104581,2.0515712767281693,33.822574296476205,1.3841955413966172,0.3057271590707962
9.45,41.45979488595487,94.4208869933027,12.67722888623449,39.860544052387034,0.8865495918161622,4.539233392010502,1.9874034130551268,31.99947273759258,1.4545112645463434,0.23508772179014362
9.5,41.67450924029382,94.0077347748877,12.450106609300255,38.32387592524201,0.8928409995167673,4.504378826091798,2.01351355628353,32.53918428191562,1.3038330436517809,0.21788265040998234
9.55,41.698737714658684,94.58759496832917,12.641295702324845,38.52583387098133,0.9118236074821835,4.519781602295064,1.997781463787644,32.4224521108183,1.368562674616662,0.04481170646744187
9.6,41.71504951038602,94.17723831615031,12.94070357548208,38.80287929619688,0.8912019579064093,4.459856460290222,2.032826646624507,32.689397913115876,1.2510978816703608,0.18898013796391097
9.65,42.15800586046995,94.98486207859384,12.694790280616505,38.39958920276072,0.8991545388232014,4.627001003709159,1.9826142991824751,32.381105377160154,1.2768937597469054,0.35531908298494574
9.7,42.23578225705692,94.74009567996957,13.330709605899674,39.2809055410492,0.9001063425870995,4.579411564457545,2.01121336096646,32.67826805263863,1.1859148114184281,0.25797392950244025
9.75,42.079034231203096,94.12115679115496,12.94625166879011,38.22474580913624,0.8799604522386876,4.535150315413452,1.9967058870964545,33.48390201866148,1.3791016699280991,0.38975291307907856
9.8,42.42191731806645,94.30320677709207,12.820153303054862,37.4931157186205,0.880778945703788,4.662602959024091,2.0015015158859044,33.475721729070635,1.3069472350815636,0.4409812774080352
9.85,42.073668456863246,94.81897557535906,12.945796160421546,38.63228793700362,0.8828996323403884,4.596437901810249,2.0296779621322694,32.56203402409994,1.2097349626134968,0.43972933351116483
9.9,41.97942435347469,94.53414448439139,13.2962774041502,38.35344197530307,0.8902465168687643,4.518835114597323,2.003160524349911,32.97004656013837,1.2709046108867832,0.32674909562356963
9.95,41.88887953691488,94.5011229622763,13.172518854966818,39.61240621997397,0.910957734900639,4.616854181194368,1.9895419311371412,31.95357829077631,1.158512844279055,0.3676003833426778
10.0,41.66830859463904,94.96821307678162,12.9987895876539,38.212237691029586,0.9057032557505816,4.687674479279437,2.0019691566070925,32.85684299441544,1.2789309793375383,0.41671530467179285
10.05,42.0106947186409,95.43824852742105,12.701741804483614,40.05586685869021,0.8855142319102557,4.5213939674402495,1.985553367668648,32.128408910500106,1.2259920991251347,0.4515841861956772
10.1,41.32721848246552,94.31014975835717,13.30610967191374,38.75272469463202,0.8841804274710622,4.512955024615789,2.0588762719294955,32.34239446395958,1.1447074139063587,0.42790907320152255
10.15,40.92117757270472,94.5631416040248,12.77470173761538,39.40481525933134,0.9046161614384445,4.730118101609481,2.0321827447233605,31.48887541185286,1.1248986490128707,0.3081116628035383
10.2,42.13882287751083,94.59752496849173,12.951089605674884,38.990925453361655,0.8630574853978189,4.451303635746108,1.9841290381457104,32.95665769337048,1.0898050088952491,0.5071854543604533
10.25,41.80312183370495,94.13156033358007,13.198412017911425,38.59610601519177,0.8668174610423307,4.577652147385603,2.0659902479217287,32.86167701489263,1.3163302861524493,0.4953782859296519
10.3,41.51091883746793,94.6261176462912,12.717236816143911,38.344441478213234,0.8613597512336263,4.686970876061755,1.9864656220575472,32.4958021043482,1.0818333847993442,0.47594705476613597
10.35,41.52186260289198,94.90803677082894,12.856818635141801,39.292226568935604,0.8725328587948167,4.538534019848979,2.0091435705269247,31.6712195469173,1.132189422226225,0.39430937743286587
10.4,41.45837450980791,94.84139440907695,12.900065782450335,38.87213175411074,0.8574275122809545,4.567390231543618,2.0175012792833673,32.43141742659578,1.1222383142336954,0.4339149912947077
10.45,42.103531955314125,94.45798994121772,13.085488881473532,38.955333748166446,0.8413836273347638,4.570485393869791,1.994853934339027,32.6674613707617,1.0927577733064853,0.6082212660594851
10.5,41.57567158467316,95.05297978936875,12.83520148576002,38.142607117039816,0.8434206178664156,4.469194460551335,2.052482797785629,32.65287399741446,1.0561179801359388,0.5939847892283457
10.55,42.218705492781716,94.86405307713633,13.20156574703857,39.04840472781313,0.833473470981083,4.497881490094128,1.945381704001579,32.80749353098771,1.1242533923593967,0.6548933431301119
10.6,41.68397041349688,94.74383403128547,13.39863029020233,39.212849382590086,0.8348675153734195,4.476395213935577,2.045925672819338,32.59037832927719,0.9835284740940295,0.552244394473574
10.65,42.0991417253354,94.841120499436,12.483093571196227,38.47501666424143,0.8049014188953211,4.563046440549241,2.0209525737250438,32.60469103512443,1.0825457954657283,0.462017456431695
10.7,41.67621764291438,94.53796463192744,13.219149909807005,39.86097654739494,0.8286842560155635,4.533452215680363,2.047942140428232,31.786849057708412,0.9886325039761367,0.5405929682992378
10.75,42.11184745144491,94.89855726868272,13.00343488461551,39.37159863536072,0.8284186081952007,4.616694582636586,2.0009738879636205,32.78151807578273,1.1224118736890785,0.5805461659171036
10.8,41.612222654467566,94.54327006935918,13.152177942408812,37.79188370415499,0.8397910528906285,4.556074880066535,1.9871696070349492,33.10064613009868,1.0621622487111992,0.4496071597104617
10.85,41.47280625765191,95.335343351755,13.165286702146972,38.4439663112422,0.8181685857761835,4.514337504507942,1.9997894660253044,32.71494051466244,1.0531793307340116,0.5197113860891894
10.9,41.13184529710402,94.9160485259682,13.283247238266782,39.70351879565668,0.8377286341838834,4.54680344598901,2.0118743291568397,31.794662868471537,1.0984372219091711,0.5707434499937241
10.95,41.80812961040013,95.17698963989241,13.060354853787967,37.692771330887936,0.843269202995387,4.482121670644652,2.0016629683320963,32.90740620509789,1.1457096637921789,0.6590714657142814
11.0,41.67014618344717,95.2012550095425,12.836699384136402,39.764289169165075,0.8441877009829125,4.55386594114424,1.9734433524652695,31.90501234778819,1.0503572466711117,0.7559379322558708
11.05,41.23182068876632,95.2470408349304,12.784543471605721,39.3966221551118,0.8339694089107732,4.513919137977931,1.9922765420078359,31.657697739254512,1.0141912209962165,0.6971148541122408
11.1,40.76340216787324,95.29170461147105,12.65003636065594,39.25420617485242,0.8474142927893671,4.532698739768407,2.005688040576044,32.003578822008656,1.1438023604404488,0.6014806512873786
11.15,41.728600656423815,95.17483412998938,12.906320710676225,38.8254572873971,0.8807664719201705,4.477715437219438,2.0516995066629957,32.79530589219649,1.049401901177535,0.7635605888927371
11.2,41.15712079544536,95.28194929538193,13.062243427027552,38.83258632354625,0.8699867897748688,4.447350689297744,2.0318436775053828,32.16888836350707,1.2097740981999567,0.5975626195694257
11.25,41.62542958545971,94.80725358220442,13.45589698678188,39.729235058074096,0.8855608951279471,4.592985053534903,1.9793517291912048,32.098963343577545,1.0945885382944378,0.7206079442471212
11.3,41.82751802464705,95.0545335466925,13.16741766441902,39.14535663919033,0.8859122989637818,4.536504983124402,2.046313958816831,32.69953129327223,1.1249130414964383,0.7609565949849072
11.35,41.83599461939216,95.17549209234535,13.503891539124679,40.17932466373547,0.9009348277413204,4.442986369953699,2.0700601073595175,31.64243033255863,1.2385978489153933,0.7233834288648119
11.4,41.52278622103622,95.45217597102834,13.21007287283512,38.14078364855086,0.9250794667268265,4.436928877856719,2.0109891940458335,32.60696819964264,1.1016787989900376,0.7914835381685019
11.45,41.39440716115439,95.73539233563093,13.028394616331925,39.35094832241573,0.9086675450238509,4.515529881820126,2.0684401780678443,32.04458707491041,1.2934706571784205,0.7859972398230537
11.5,41.186321655379786,95.26666252420462,13.56265320242716,38.62417128047512,0.9071230182482032,4.477512989461319,2.0143201305516487,32.24459750591788,1.01004687468396,0.7020684246433968
11.55,41.62095493377702,95.32941831135074,12.66968615023165,39.1629633700263,0.9199791690914877,4.407667084702253,2.006905970807884,32.68724763437014,0.9844934819625645,0.860625276076295
11.6,41.69693566915921,94.91478206751206,13.194178355201762,40.01207553334005,0.9403292492876496,4.492932509659623,1.9868644402099427,32.03732776552854,1.2163990884141735,0.9201643415686236
11.65,40.85039456956865,95.44080810017182,12.759175522107588,39.04155155581036,0.2543265148222556,4.533998519986911,2.0336648172079737,31.288794375341393,0.9352371175257936,0.8103797805434859
11.7,41.0967544367242,94.98246880192984,13.13611059030374,40.01812153623711,0.26253168868112564,4.427026918662184,2.0507003567765225,31.183143422180965,0.9938793730983806,0.7895318731569712
11.75,41.31858618895645,94.92564096488792,13.125786913766483,38.347543676771004,0.2825020678711271,4.440654794924786,1.9898062269486014,32.175194477933424,1.22350766169978,0.6297137732902107
11.8,41.532217318238544,95.60633043812786,12.800597031317986,40.20028622732713,0.251901798651127,4.378683127572898,2.057833539956213,31.480731883001283,1.097626289438324,0.941060574635243
11.85,42.28386759559546,95.52408830587287,13.11992204950789,38.55139382477839,0.27456873592437014,4.529419155270723,2.0198294508891883,33.159310760920164,1.0107221118048035,1.0066002919841681
11.9,41.875745957162735,95.82187478612757,12.922549745600623,39.39253166612858,0.2710401978680928,4.404644557730105,2.013249755671361,32.42798483095567,1.1088577976502973,1.0118779921270482
11.95,41.32869097858322,95.12127788546286,13.256597880450094,39.22375814873175,0.26386369223923933,4.434267193829448,1.9932913544376103,32.38982472262558,0.9055711398487216,1.027409326192132
12.0,41.37242365277697,95.34998034257711,13.11394935582142,38.64302348196563,0.27942507081082496,4.485076005346185,2.042796610764766,31.64940153853768,0.8219205969969894,1.0831049459844297
12.05,41.82256362917731,94.96175056319144,13.420070329615848,40.41438463077966,0.26797505164351515,4.454933091105598,2.0038003332910903,31.993749533265706,1.1044278473002331,1.0086164495675818
12.1,42.32096936723875,95.48188912525949,13.375779197119193,39.817803707827444,0.27325303306758747,4.548612163654918,1.9598685756496672,32.116901800064674,1.0142536992672035,1.012820152236453
12.15,41.23974046826749,94.78120557486844,13.246405841199081,39.783676464723854,0.2590634939682021,4.47580465125465,2.0058415677067534,31.611785748469348,0.9088154169009365,1.2598312093920783
12.2,41.89711132159306,95.70233779789272,13.15534994230445,39.845633361462966,0.2841111859374293,4.336123918592203,2.020990668605746,32.3236134000047,1.2231895626284255,1.0855942073072182
12.25,41.32057336504997,95.66131315232873,13.331712514474725,40.29582163007248,0.2712632798855726,4.446300133531258,2.0397431704747215,31.18010648413858,1.349071541669968,1.213982409181796
12.3,41.58259033243355,94.81338133444511,13.233662498376557,39.45759875879099,0.27413354758404884,4.474604309124974,1.9896465556027447,32.20928126053539,1.3712423362349786,0.8982251660772866
12.35,41.32707440471521,95.6165307551641,12.975228755000998,38.643059181556026,0.24550091508300742,4.505092956255278,2.0307265797726197,32.290521619754394,1.2891839807351977,1.1737381596082037
12.4,41.032641867513384,96.02118923717856,12.832407293122404,39.969018703973184,0.24950876713923634,4.400724219148097,2.0377183604699076,31.15057918863812,1.1738857371450344,1.2148964652347656
12.45,41.81550624448314,95.5732435516253,13.295652401580687,38.80278651612501,0.2673641341632311,4.391939168220113,1.971383577998937,32.884730613776476,1.1102096632006924,1.2449616688896052
12.5,41.5448607762876,95.65744100225155,13.469497291093406,39.37829648530516,0.2709895232068599,4.422657271665668,2.0376251563612726,31.79837875733449,1.325570471986802,1.1790572482533581
12.55,41.54950910445801,95.89489667140568,13.287869341134773,38.99824342305225,0.24423673447509775,4.418400857224682,1.9842895457967766,32.04357526063882,1.2811282992258612,1.3091563912621438
12.6,41.985951359971075,95.30802951658016,13.454607763379858,39.7405091955931,0.2126244347566345,4.427503586693695,2.034182427101438,32.23205749420981,1.3516875597671483,1.206118196630596
12.65,41.187672529551236,95.96326485423313,13.178615178990261,39.97391283694432,0.16780175471258318,4.4348237826948695,2.019225210967718,31.731999150305924,1.368101728287259,1.243368910522335
12.7,41.899295322556235,95.83164925962124,12.723406988443655,41.12032536267644,0.1504656039550979,4.455580865951112,2.066896044215704,31.478761385034314,0.9944451081371746,1.3092501592518146
12.75,41.16287695314086,95.68278521235283,12.332553763962089,39.879239484674784,0.10677002322998963,4.449618642341947,1.988688638213301,31.656966070011993,0.8368379473945144,1.049790267467033
12.8,40.76919775549007,95.64915004926345,12.69324104811229,38.61240809009778,1.020113198176229,4.385123572201431,1.974802852394034,31.757215032979126,1.281444776004008,1.138558748243336
12.85,41.35535934548997,95.6703922259714,12.645782939700133,38.42878500414174,0.9582095185603975,4.305726579310053,2.0324095830861193,32.4333103157998,1.2841374084039352,1.342526937441968
12.9,41.12082782323352,96.14185679800438,13.036203261594991,38.99717887605213,0.9242019855474628,4.462901608176569,2.037355839996913,31.79109673962322,1.2672309224949068,1.2427750209864097
12.95,41.411827895280716,95.77782058970745,13.637548847958493,40.31657877587622,0.8895892709943765,4.381470181348709,2.0461630117992464,31.944659060400625,1.4329343943803197,1.2949654472612961
13.0,40.896445156930334,96.04575435257055,12.727296132986911,39.57590238728717,0.8899579035150426,4.413641576473754,1.9897877043667727,31.950182013747416,1.3060227396768151,1.1119060063489745
13.05,41.504474955371755,96.32849157790197,12.947234666980332,40.00337093902614,0.8473395475742059,4.306464087867206,2.0112389346399664,31.958987601267946,1.5865735348033567,1.3468972769364085
13.1,41.076398404569105,96.26402605375581,13.312458763136249,39.28397662595809,0.8399522706560156,4.3290751029099415,2.0179892088038116,31.896996105121193,1.4685240715622692,1.2475331431357568
13.15,41.3504260860095,96.06456738361237,13.617959109961939,39.12965548372104,0.8333223040917677,4.33550181690634,1.9827520917667938,31.754215446458662,1.3043440951533813,1.3874666297843223
13.2,41.40089681237285,95.78366217919977,13.316009850645646,39.890778546782975,0.8358322393349886,4.345716489227138,1.944127829241352,31.796105285159143,1.4280630436096682,1.4323513458247517
13.25,41.38347900845916,96.1991807305191,13.211149904462516,39.74866124478742,0.8255185473915966,4.338686565297429,2.0177705188704262,31.611359323071582,1.4404379998378793,1.4912137255687405
13.3,40.895414439513274,96.28007380134602,13.087564105587022,39.617044156756776,0.8141827901244636,4.297968729251814,2.010232176757981,31.668420638325443,1.4152198638623739,1.4396199079784524
13.35,41.36719265142527,96.12106024520531,13.193240718753248,38.94688905155972,0.8118054701520128,4.3554234818507345,2.024115121882823,32.14195059668497,1.3822038091626943,1.5011831831626432
13.4,40.87204243887558,95.5187550829313,13.109849820437772,39.96556383510695,0.7918951000579582,4.4417238310104725,1.9982023408961578,31.278924471961236,1.5060076411534533,1.376676704232699
13.45,40.91433728386225,95.83218581556456,13.306660963981129,40.311522589924216,0.778677736736287,4.248364134954151,2.0522832864319156,31.428166133916026,1.486856561397876,1.3639191436176925
13.5,41.42550463534134,96.205256008251,13.338756733023502,39.52556509827695,0.7806347810788076,4.2864936525643875,2.013334401752182,31.6848301698994,1.4885169389385198,1.4491411196297768
13.55,40.97650516860008,96.20582958559126,13.32377709010654,40.392595744939925,0.7832861141397688,4.299356939689421,1.9837028916877608,31.255348163811536,1.5301070836179287,1.5614417251759816
13.6,41.3483923119198,96.33623313035874,13.114226877754483,39.91846752505321,0.7630801993140961,4.331918767403767,2.055030302603437,31.560900725281428,1.5103455601678644,1.502525406369218
13.65,40.62224144498057,96.02397690207039,13.030286639504848,40.281219757519025,0.7779487485711346,4.2818757616453205,2.055748191181993,30.92452017642329,1.6330998858770671,1.5907289197521983
13.7,41.05284955445771,96.19090305128852,13.27422344952011,41.81633510207565,0.7870264041986943,4.273850155331599,2.0324384440426213,30.809886674760374,1.5017999897231928,1.460254595232756
13.75,41.58549006933685,95.76777996314095,13.404498329662626,40.03230178923916,0.7722983776061366,4.181276567870047,1.9832474093024903,31.935805396114084,1.535594537705724,1.5207750628026606
13.8,41.15900639913377,95.99594133039088,12.834544587416525,38.88630476491815,0.7904795763243071,4.378821717398908,2.05028047989487,32.40110892790727,1.5254459798351088,1.5695298420098935
13.85,40.83682759738033,95.86839675013118,12.88527361963316,40.02315444059619,0.8016634615725563,4.2731234929094715,1.9730272298552076,31.62557900950037,1.5018108626211724,1.5850631569756013
13.9,41.29996002293965,96.46652457904162,13.33236921596163,40.94904531202001,0.8174152503820318,4.356660022518104,1.986239288784573,31.30007960973514,1.5896694435436565,1.5786351728471266
13.95,41.248454206514275,96.4405858881708,13.270389523548289,40.046160658184185,0.8132470241145122,4.333300614682757,1.9916292230542316,31.609150468818804,1.4613422836426089,1.7206965644563152
14.0,40.74529519520024,96.61744973152074,13.218968397828005,39.915331914012526,0.8202609017044805,4.3536563072507555,1.9814951767834466,31.29415055482922,1.6824272250948356,1.5269057860581905
14.05,40.764296022650306,96.54080153409937,12.850667375872584,40.18653899935307,0.8242180585575561,4.374213955582631,2.015965490559443,31.21083556273269,1.6867708128485612,1.5897757944921538
14.1,41.183730197420026,96.5250831423548,13.015398076945822,39.26437834822344,0.8529359663202534,4.286044736814649,1.9753059311242542,31.99540346071871,1.8245901968451825,1.606761943316717
14.15,41.268900319303796,96.35220747280205,12.996461975602198,39.48117223797262,0.8584957957697043,4.259569950745157,2.020211581223353,31.54559741123332,1.717610811810853,1.657605791457613
14.2,40.98118020716156,97.06110299772342,13.237094842536283,38.7244849854798,0.8520758052033511,4.225432819562424,2.0211222703325986,32.6422437145892,1.5694182383819437,1.666386248894944
14.25,40.80674231958736,96.6337610431295,13.528758543484074,40.08759431936438,0.8867377516065231,4.218262731159454,1.9973283135075013,31.48016206408122,1.8103763677084632,1.6235612656188463
14.3,40.22553234399523,96.32511830797898,12.966895891556897,40.91487598532575,0.8811791660673646,4.2505197692736845,2.0301088143646067,30.731448297671896,1.8944356273205711,1.6371413728467146
14.35,40.17758054919234,96.82306362333514,13.481356046178584,40.833672257215134,0.8773451121622178,4.273051182504918,1.9772555289640619,30.437581600105137,1.742229188402817,1.7403985354929616
14.4,40.04183498761378,96.09314995929526,13.063429475977168,40.013014886201084,0.8907529706340557,4.215493862914564,1.9970326595355261,30.54192540314082,1.7250677403310852,1.7783051688781097
14.45,41.056933313317906,96.5848575827533,13.377204693895585,39.44649677007553,0.8979356283081485,4.227346479003389,2.0150272297738754,31.586985282323283,1.7480962061908607,1.5972316441154644
14.5,41.08276399860727,96.48895216033884,13.189346708853178,41.02332988204635,0.8895204085077004,4.3200227044006265,1.9645301431389475,30.943207581810572,1.7949842999772008,1.6173681795126131
14.55,40.66687129792553,96.4750458619604,13.475866357940841,40.48020660677535,0.8870667397784655,4.181324268460046,2.0489640397996522,31.27011002337417,1.8364310995141848,1.707511555572241
14.6,40.52905120359045,96.51205641917579,13.140073598742141,40.32277822145598,0.8894710990349369,4.247301201699056,1.9300868711136856,30.706146691006044,1.859880473049628,1.6931229781272097
14.65,40.35692291399665,96.83463761560537,13.125511691595719,39.7041736608392,0.8465484026658278,4.232057349317854,2.0253642821619793,30.94811767810971,1.8194829576410376,1.6324945053400455
14.7,40.560447786420575,96.41936853107536,13.06349624477346,37.78344758825642,0.8822963730305268,4.301044636443692,2.0134587254617355,32.06622965492362,2.0277055108854882,1.660404761881719
14.75,40.7310688424574,96.20935691078222,13.316281097225213,39.76562487541697,0.8501907455224235,4.233155623537849,1.9781207675794041,31.62204993720219,2.006776043943454,1.6909057100664104
14.8,40.466203751089004,96.47854489327233,13.680818994003975,39.29795526527804,0.12758272099211682,4.159901017232703,1.968568491045001,31.40825642578192,2.6419194255776435,1.5656270801766636
14.85,39.97044927423395,96.64411986498179,13.299802593249845,39.724687827899004,0.11101266583726531,4.262135281802697,2.030807374549483,30.88845262968568,1.6745263920401556,2.167643315730585
14.9,41.27095332989059,97.15732118854145,13.448957224022644,39.4151562201517,0.13407656527152842,4.138299204472261,1.9680221723078932,31.81505327076341,1.2227380071480924,1.977799242553429
14.95,40.35621398540189,96.96435579070372,13.292661045041735,38.90390092563294,0.1401955958675176,4.203791216212619,1.9733374359294122,31.690553544908983,0.9214625993150438,1.747049008699054
15.0,39.94133260955354,96.6000660237555,13.322606882699894,39.97419637310159,0.1432009174339296,4.183335871804744,1.9848354328243139,30.9064899741143,1.9269391099351814,1.448628204841832
15.05,40.842995264382665,96.72686975992505,12.907363227374795,39.828836013551765,0.14467245100341056,4.2170309275803195,2.0013925898370375,31.679177084876667,2.6554206768466093,1.7996193987971651
15.1,40.54816659422979,96.56044889265529,13.11148465700173,40.88820114216942,0.06633697846915299,4.183735333118245,1.9970083109881798,30.544173493819056,2.467287560974154,1.0789512414589169
15.15,39.946558205215304,96.50092205744127,12.918108492989639,40.21399650244764,1.0152121145877588,4.131549068090338,1.9863714124219947,30.497666130597533,2.079014417215947,1.7606490944145359
15.2,40.42527104999885,96.76392924243724,13.562044141943344,40.21499199744295,0.9346724825110672,4.198795121923755,1.9677444236293626,30.718974919041198,2.072215878662384,1.7571609885342774
15.25,40.75051260165507,96.6938604475006,13.4821120495215,40.00044465037226,0.914509454751375,4.132315615157837,2.0029992542536954,31.33036491989807,2.27235277823744,1.5487888665815184
15.3,39.583010148583725,97.19431342620905,13.366332955072716,39.094821060666156,0.9166478764162967,4.107239668032631,1.988412449779416,30.698941111719662,2.1981890512026188,1.8497296532206398
15.35,39.769258750935,97.16220957603466,12.964639265978663,40.677930172031004,0.8694360812658555,4.15278137599814,1.9865411001227689,30.65966824158211,2.0342374686428104,1.65113172486388
15.4,40.14947492254184,97.23881605053533,13.189068092458756,40.18221731667051,0.8433297558161272,4.173835142840505,1.980907384473719,31.183392399868985,2.0002637902203073,1.6510142066946194
15.45,39.692829167476425,97.21226409209558,13.068138748900639,38.51250865248461,0.8552206324335279,4.1133177842456,1.9802090351488941,31.005160576760204,2.295768661171446,1.8211426975795475
15.5,40.404614142938826,97.11142126470178,13.783216294770497,39.52395305495518,0.8550017497691474,4.065540691488487,1.967095665512796,31.247338894743,2.127620258861345,1.7038982530432696
15.55,39.71589302084868,97.01163686726905,13.06409239066635,39.13727254336938,0.8306787810437498,4.12223972784207,1.9974736859649018,31.360981271462432,2.1318423807328895,1.6328784107369236
15.6,39.588853880558695,97.11181366141487,13.55088769436184,39.64952514699984,0.8252290216832517,4.112005298233986,1.943443325766549,30.4771267098659,2.248340028896562,1.7705941214681644
15.65,40.05286618360029,97.1356492122627,13.447490956450698,39.11540432522751,0.8001863479973124,4.144510406485505,1.9579542513058528,31.194058035803753,2.144856946663381,1.7373524019799167
15.7,40.53087961864857,97.03073033640347,13.600320658721952,40.74178672371539,0.8233559027832119,4.292655975412327,2.002295638782016,31.279675209205212,2.2859756480171556,1.679866259096253
15.75,40.299876384141406,97.16083635501458,13.418641871929195,39.918378745408205,0.8172918012185201,4.0784701108257755,1.9283825993407226,30.594042508729924,2.3311192365970417,1.5914387251243338
