time_s,boat_speed,heading_deg,wind_speed,wind_angle_deg,foil_height_m,foil_rake_deg,daggerboard_depth_m,vmg,pitch_deg,roll_deg
0.0,37.74617499786695,90.34144070511955,12.000246030671496,29.408964632056698,0.8397054140424063,3.9487111762860025,1.7722088300545147,32.78775962542319,1.9324773582000403,0.9755366123451382
0.05,37.66802850622114,90.1505858232402,12.063676093832822,30.422407478263562,0.8537179244897534,3.9610705031403284,1.7891720574631804,32.769356729995316,1.993154448491068,1.1123125171680823
0.1,37.55825526461336,90.08755582565134,11.953026374674685,29.984965140364586,0.8346868374740235,3.9720035238365163,1.847643975372398,32.61601597969325,2.0402023876471893,1.0488563290120334
0.15,37.5229371465852,89.89030528560731,11.83366248358161,30.349918463111663,0.8427403735729002,3.986040129106273,1.791889552629473,32.56407763979851,2.0584006487009896,1.0334294552346963
0.2,37.2395067353842,89.89524100862648,11.924773519140023,29.994169971825183,0.8461129392876743,3.989122747336608,1.8646867475266287,31.829408201107277,2.086002922786979,1.0624676239497297
0.25,37.3565127973108,90.19258632654767,11.821305082357723,30.414433771330895,0.8540647482221048,4.031100465217352,1.8068084205362045,32.2128475627563,2.063643422481104,1.0806510769247213
0.3,37.80643930445633,90.1757161327817,12.03558969648722,29.93853214094311,0.8404588784010222,4.087610408843811,1.8038179145467523,32.74722749921387,2.096957097481618,1.048454195944473
0.35,37.71190610794468,90.05017436158315,12.29553044620506,30.353178699716466,0.865474195577249,3.9728639315058314,1.836779185631562,32.685194734174324,2.1737397797962803,1.11465409759643
0.4,38.18444607574806,90.10048277834343,11.93297232611477,30.709679434149734,0.8524432084718588,3.9657381711399933,1.8060174032174685,32.74656565450572,2.1252906572796477,1.1493700156669753
0.45,37.55527946045084,90.52419116556861,11.911244667286427,30.493600914543954,0.8536579791506933,3.9552937482588777,1.8202143525872667,32.59955582719556,2.1507817797770397,1.0694541677666356
0.5,37.01066036747144,90.4343297860382,12.137233832498849,30.294804444627996,0.8533881955771881,4.107416261691585,1.7925158192149828,31.83101369937863,2.04431615219199,1.144036730627477
0.55,37.65858895217825,90.2708531827697,12.114568330184408,30.03230702070401,0.8510574221098384,4.123247591910188,1.7897116126743062,32.34049866080326,2.127390670992611,1.0396041129893012
0.6,37.86451870146061,90.32938073365129,12.068198988416773,30.711721676289876,0.8487610158806186,3.9849084233331533,1.8014979174342978,32.24423005091548,2.2527515054011937,1.1048747000307104
0.65,37.886761061240264,90.56217167150352,11.86494741681161,30.85262565925525,0.8705114562282575,3.9848082844604638,1.82259423560598,32.778084996024276,2.171610811876857,1.2404513638727646
0.7,37.860305426155485,90.4028556301383,12.04911519856718,30.603202246351763,0.8619191823344071,4.077609447863071,1.8057884970386016,32.74153388453589,2.1771826168381545,1.2740472577893331
0.75,37.65383040823771,90.40207854376729,12.19795036253026,30.39993079181785,0.8595632079563001,4.130458068465249,1.780533158480553,32.33378003923308,2.2946428920246458,1.3188135527026275
0.8,38.30063847361301,90.064013578114,11.793970571136784,31.10806995013064,0.8712018834380846,4.131271400819044,1.8319718428524963,33.014588466303536,2.201545429529465,1.1824244484759767
0.85,37.719380563694344,90.06475171340273,11.975213654824389,32.12980818974928,0.8550880672039096,4.094915945086253,1.8202136639181512,31.917691224980818,2.32739838428537,1.2544715270509788
0.9,38.10680320354644,90.0439785144532,11.690415128104295,30.789852143557393,0.8690492697749294,4.124040343211417,1.8192477428007672,32.72059575058964,2.2888610397352642,1.2565629158610336
0.95,37.863293188458925,89.99875069684789,11.816674512845992,31.161567219816945,0.8637819343875028,4.1109912376810955,1.8137912479505292,32.1255360299888,2.2781379273154636,1.337496139646074
1.0,37.599675853185296,90.46948059677294,11.71015692680607,31.233981124092157,0.8555101785110812,4.071593681363152,1.7815502103658272,32.0521253121315,2.2228017637983877,1.315691389728203
1.05,38.48022142349111,90.56169069961115,12.035407043653732,29.81411067908907,0.8725025489395495,4.1994197474707855,1.861748646549712,33.41675938842119,2.4057763933647047,1.3176752765310775
1.1,37.292254765481516,90.34536725147994,11.83285674415061,31.21130267761944,0.8509823040703707,4.1085910260330785,1.820669327417165,31.942753106788263,2.264591471870504,1.3558249381423215
1.15,37.88368413214202,90.63093322400826,12.14451909096828,30.848109037184337,0.872864864271008,4.057695588411406,1.8427222386346742,32.42424597872784,2.308606682069784,1.318397519821119
1.2,38.29660472752991,90.65478549081939,12.125535996618815,31.94567632756815,0.8584358528145268,4.094551454825414,1.8618650794813907,32.69764972249438,2.423694129532434,1.3994484260844435
1.25,38.077528971607535,90.57428445848655,12.060718504919224,31.17826901165451,0.8719010765071415,4.045479131383822,1.8578370978475036,32.864920791059525,2.33738747474753,1.3493498358403238
1.3,38.34851871113836,90.31925258550667,11.598670993833771,30.96838782130592,0.8821906315804496,4.128046085336382,1.8401974325060229,32.734322549148786,2.438766713233141,1.4304915803350573
1.35,38.203913117278624,90.92523266577709,11.998201899727423,31.299762651336913,0.8748805406671605,4.1866505558165406,1.8376082879722386,32.7303334105448,2.4258993760044345,1.3988088072913056
1.4,38.14903899931514,90.93527490868846,12.100157106611233,31.544110814669427,0.8640484790430629,4.07315464096282,1.8450788403330134,32.226170936788186,2.428258743278573,1.412851134287458
1.45,38.972018249748245,90.56884913939297,12.136435156737203,31.232655417191317,0.8703995517064,4.197381034245031,1.858778691547353,33.41273695989407,2.4029754770181615,1.3590563917491814
1.5,38.22277975290999,91.0952765667243,11.811661490490689,31.53801326073094,0.8677548400142313,4.250276596319568,1.85341704356799,32.39947477102919,2.4363782979919955,1.351039567902512
1.55,38.31489007498806,90.74033212522507,12.026052465815422,30.938958295262264,0.8605120352065875,4.169078148356226,1.8337261498612745,32.842503419321645,2.496376820043492,1.3606707389174895
1.6,38.04851629354948,90.5978956617417,11.929812949387145,31.555060743706484,0.861852519362862,4.0967942822206265,1.853502234557742,32.465184101963544,2.4470818597706407,1.4695951940095395
1.65,38.18718345980611,90.69654309181144,11.967662100811765,32.10712744083731,0.8738700445847685,4.116567402409932,1.8533798107395536,32.30906954502927,2.5403488780878165,1.3540808872188423
1.7,38.71266106806326,90.43117839017873,12.345521169976877,32.75543354102989,0.8794130766486637,4.147021899664932,1.8612474796815213,32.76828657544837,2.5336348142852767,1.531720395192
1.75,38.643388434194634,90.75535015909468,11.975745492928725,32.175612688776376,0.8574180314346076,4.104152476111606,1.8525518946527237,32.56780992740401,2.5612425907135594,1.4608246226447108
1.8,38.53677752775492,90.52908537044162,12.134658128988669,32.00978007580321,0.8747566369127098,4.110235506019521,1.8778182904524743,32.59673682501562,2.558128139727458,1.4216314298842647
1.85,38.39372769536492,91.09857403792849,12.321949517925312,32.517102594226294,0.8811238823911083,4.164245219489034,1.8551854153466945,32.44724640078668,2.5867130633551687,1.5112685019504575
1.9,38.78218019532141,90.95976472233926,12.032259538066798,32.4861277337713,0.8778761608722112,4.172673009792855,1.870640912263213,32.71668094082934,2.5894849872107386,1.4443605687130558
1.95,38.11460981739601,90.64188254621885,12.130546293775744,32.85979430436856,0.8675842335190473,4.216432261279167,1.8546460832176996,32.07506166888649,2.623242107475182,1.513726610462573
2.0,38.56312599683437,91.05758015846096,12.178885523551376,32.62044483510203,0.8883001174062882,4.130559301748728,1.8433058093146515,32.44924651526293,2.6122552756979545,1.5071609699129493
2.05,38.61879848077141,90.62336164421443,12.173453986321823,32.07137207207401,0.8667925733162765,4.288631469562641,1.8370177814667141,32.57907388464944,2.6206044498311187,1.5846481321592376
2.1,38.41974394596984,91.02119442323844,11.91959030135303,32.310656220282546,0.8857839122591563,4.252469870774394,1.8545114388183097,32.6089503363123,2.569742231530459,1.5777123789086245
2.15,38.802207379850344,91.10891084288122,12.183732219717704,32.32208178760828,0.8958034325616445,4.248303281490321,1.870110066661306,32.81502428200371,2.540044388293939,1.5864896113140012
2.2,38.63777587411527,91.0503989319817,12.444170410087606,32.43457830285914,0.8606059649294278,4.175545465113272,1.8864625389120033,32.79430629896556,2.638702163201495,1.526396407651526
2.25,38.51130046405168,90.8355328744171,11.86687716056106,32.43461418307912,0.8838485191047231,4.299464648432232,1.8599350931216414,32.771093883983816,2.6938631746600907,1.6140316237286734
2.3,39.41994942125663,91.06170100765235,12.35208179585629,31.994120176883428,0.8850280055265533,4.199616176715476,1.8524337013002241,33.37405391976702,2.6095981442581606,1.557031643249062
2.35,39.102225344608684,91.07070415238586,12.207973990349839,31.384332173553503,0.8847913721211217,4.311903700051915,1.853995995387296,33.24848298723879,2.586220122546166,1.571395433889152
2.4,39.239575044505884,91.14274544397288,12.059705771525012,32.15105956571372,0.8756345112230218,4.278949316202047,1.892233313495252,33.14467574723389,2.6471664583387007,1.5919373104086039
2.45,39.03081416834286,91.45132717377867,12.591978536220951,31.524562201664235,0.8807276831794006,4.184757404515665,1.869241519303191,33.15532848270701,2.701111322590506,1.5885416290559888
2.5,39.28538468421926,91.51627828810638,12.34824123074702,32.62217000471641,0.8706651722751534,4.211140668823028,1.858108542122001,32.714311566772025,2.7342464552513155,1.5162071020388246
2.55,39.18176369138661,91.51704715365138,11.959824227368784,32.64099869373035,0.8863014838382584,4.331686430405582,1.8848798833667637,33.320975542931066,2.6839305050194184,1.6143759278248195
2.6,39.39227104159628,91.09805813190779,12.21847660440575,31.851410954371072,0.890878694259,4.292391091070722,1.8438929177539132,33.55019407283852,2.6492927415533196,1.5116064554532027
2.65,39.788704515917736,91.09860009280715,12.322801230978115,33.0836762704883,0.8796479892261727,4.23869585154528,1.874695160975266,33.79848041689589,2.712412274597947,1.6125081848649345
2.7,39.00905630344686,91.27599409341272,12.173595422836224,33.2233401027499,0.8776760944194071,4.260835033003822,1.8727239220942222,32.53528604414235,2.7565804036598434,1.5895093065955896
2.75,39.219219331098884,91.38203695286879,12.351820986425809,32.88807934158586,0.8827045466721092,4.264694786370937,1.8721457000553956,33.05849061402719,2.727081608460781,1.5986669159066134
2.8,39.12547887005422,90.90701156212648,12.205821078813734,33.724151120367985,0.8878411652380196,4.220204373324623,1.8525158922039615,32.60503370793998,2.7866971671865586,1.5449278847094114
2.85,38.14476255394143,91.21939230586415,12.35645816301225,33.87623602421593,0.8890876364264637,4.2529453025404385,1.8976255964250268,31.66673165083081,2.7176564110567827,1.6457868711739079
2.9,38.840579504403486,91.72357911594166,12.514595748702058,32.387410924407746,0.8880295114448585,4.234005054769833,1.9132880625484383,32.99869280686984,2.792045986558677,1.5922872805497772
2.95,39.209815619598416,91.14059419610375,12.095639804608055,33.55868318115543,0.8902790518860554,4.2496183187050525,1.8528867811579972,32.685958858737415,2.835830550409809,1.640317410560936
3.0,39.45839863161381,91.26476919404394,12.275279419638268,33.310593883106364,0.877281913770412,4.298436093464538,1.8837927950941935,32.97166599579645,2.710219195150119,1.5654199564186235
3.05,39.09775556920003,91.29444852814856,12.145868016727364,33.34908444794741,0.8638891988498785,4.23116281816284,1.8958389794747985,32.70191036376421,2.7215359267475576,1.5659117692906315
3.1,39.66359523312834,91.5567966452396,12.267859413900208,33.656816851803946,0.8972893871297901,4.319398909003196,1.9301902245637925,32.59513723835463,2.8017427891191913,1.602646823834426
3.15,39.68418456251772,91.46967924161774,12.008841364283265,32.87959028400229,0.9057215555438519,4.292484579026897,1.876600253639734,33.199866318435305,2.92899222170085,1.6472085939298022
3.2,39.22783746818286,91.4412466005482,12.134292800773618,32.99248025077332,0.878374747556229,4.329076394081875,1.8669486130271213,32.7712296747819,2.8029872883615243,1.5341832214645694
3.25,39.8227927520572,91.22587226645281,12.214785061212638,32.92473253629004,0.8862640724271232,4.3393109718835,1.887570172186262,33.755624167060475,2.7801130882901206,1.5675235330080577
3.3,39.99315744858547,91.67486840031815,12.437646424839196,33.00992801577175,0.8962554214182291,4.361056821261568,1.9302191416497565,33.66147864480714,2.8498621703231724,1.5688686401907135
3.35,39.64492114828927,91.57668946070244,12.490805678981314,33.38734107876658,0.903168620934853,4.3339512973164185,1.8915902184062392,33.26462697154265,2.7820934218479927,1.5772784669269604
3.4,39.1404246694354,91.4665455214872,12.000921551982524,32.75980838910562,0.9006704940323407,4.341714759337287,1.896838931787816,33.047268981530344,2.709893991486223,1.5653424049541345
3.45,39.92448529627132,91.6281261349966,12.11056264969238,33.011884749297714,0.9073372323224219,4.301076836831576,1.929055730876881,33.453168236891365,2.745156457618899,1.6347563540966088
3.5,39.52023745125047,91.80417469219988,12.402733972752905,33.87244363998344,0.8947474582835917,4.342344702384475,1.8500853837916467,33.14246848213884,2.8616573297001424,1.6134280142341513
3.55,39.37815131763485,91.37449875678358,11.878729623218925,33.59703094713488,0.8998145922156896,4.272472441898286,1.8506795686247544,32.77135554441435,2.712424971239113,1.576582075553896
3.6,39.61503394546265,91.38290300273273,12.188437998888114,33.87272292229582,0.9002562596509438,4.308938997258148,1.9149521926163913,32.63044014913495,2.726533083958152,1.6109289036314174
3.65,39.46079976101178,91.51220621383922,12.26547105213351,32.785247584151016,0.892442842032611,4.362448696209644,1.9134527366004281,33.30762594174693,2.8390094785240327,1.614747382348623
3.7,40.02525761647647,91.56512211028421,12.540185945246224,33.386481235104604,0.9089205853432656,4.325973899371596,1.870349133033435,33.6588970711717,2.8061460214525713,1.5310240531875943
3.75,39.94110139200314,91.15337539632345,12.430516263138344,33.54912299728103,0.9036913774768922,4.354524051181307,1.9106105490380103,33.318986418056376,2.8591059176980305,1.5199592262265218
3.8,40.05991692109457,91.66602116914837,12.231043326524249,33.891423271899576,0.9076097771005269,4.282858868721549,1.902045216581605,33.335410269566694,2.746036980674976,1.581264396196056
3.85,39.89367885786157,92.03268111569294,12.226619327211274,33.630229080208544,0.8946203841975816,4.407835338087078,1.9068583122820213,33.41300025069486,2.761665048453845,1.6427165455363906
3.9,39.51244965945485,91.76736503896214,12.254141862931185,34.43808621960102,0.9089699150881367,4.313948813290851,1.8871038801643585,32.893812598843006,2.780065752944822,1.4221047417672912
3.95,39.80030913879338,92.06027033334293,12.612731175307378,33.990339708442875,0.8889500209768884,4.366151052402017,1.895498244076044,33.12378650938943,2.7345885438644535,1.4979274515001937
4.0,40.0590074186587,91.30474202745022,12.226262547712066,34.07587351105679,0.9035444207630721,4.348653209155689,1.887994179085372,33.51639462827302,2.7829261837468335,1.5570305235941366
4.05,39.70539608613361,91.8809001921121,12.254971562059012,34.12191267254734,0.8744683502627582,4.399950426604226,1.9082074251880885,32.937635649745886,2.784097992109348,1.4735031732422397
4.1,40.7556854740854,92.20455042923889,12.390063392869518,34.51680064732107,0.890582111638728,4.3374563260750465,1.903596744735592,33.99667687810885,2.8334402591516774,1.544725790545193
4.15,39.813884183613105,92.26484578874091,12.299227239946058,33.97454777756792,0.908073684589946,4.3098809272118075,1.9440141613621011,32.763955925893576,2.783390824894209,1.5054115223084636
4.2,39.73326300998069,91.87359817490749,12.287758016501668,34.81898980678737,0.8968145743151232,4.268230356233595,1.923554023280518,32.81346746413771,2.764832453646833,1.4260227119958961
4.25,40.242693164512616,91.83178018878603,12.108232723902042,34.53514026942761,0.9032943499744651,4.351261359310748,1.879559090203164,33.218500468977616,2.806074470833376,1.4541809130985934
4.3,40.191806123937255,92.09726470715967,12.332570880408717,34.42932946199745,0.886063556625475,4.310053551010878,1.9215162494693148,33.18633427000107,2.8329168902827826,1.4842372371086654
4.35,39.96703059735703,91.79989814362794,12.249985655708771,34.42025994233309,0.917459864362102,4.3999119281751,1.9435105266420143,32.735019029530775,2.8255638612077516,1.4138626031776165
4.4,39.99577307110614,91.99399268486626,12.57575186040403,34.70650377579059,0.9084799693440373,4.448560712931091,1.9210574647796532,33.098764533465406,2.7832619465910096,1.4740793301596955
4.45,40.197167603691916,91.75567304210534,12.476966062931602,35.00088575512349,0.9027198025811873,4.2679710085843725,1.9386962202662998,32.901866899622355,2.7458631307341106,1.450252134446371
4.5,40.31751991385855,92.13008765344236,12.345339323181872,35.012668772587965,0.9073690330983384,4.317991003391583,1.9168536852139964,32.84202957404186,2.736237166745689,1.4099936192532327
4.55,40.34794718611971,92.13793088766155,12.487661533817239,34.774425623748584,0.906824666736905,4.401207871199881,1.9331318315518844,33.03261230472015,2.689336449265778,1.4318292066214755
4.6,40.01271400415214,92.48627430471942,12.289826276025241,35.07131972866726,0.9177786930596206,4.450659282256714,1.9006262957177422,32.71552155695716,2.7521429024796045,1.3845550703374319
4.65,40.31271260573992,92.25514403000075,12.572037862934948,34.738477235477504,0.9063185511437353,4.4071347430363295,1.9370462013081033,33.159379505719386,2.7415373885045677,1.400314251685509
4.7,40.41810412265159,92.07470296859306,12.364342605544708,35.351752748347174,0.8901034165653883,4.4110559196137915,1.8937543529415752,32.803208424951514,2.818451392497867,1.330364704931544
4.75,40.441875325222846,92.21162045704929,12.485906410379572,34.758284348991204,0.9022886106680184,4.423130603324859,1.94963130726641,33.060368143532024,2.740613372436172,1.4327562423182303
4.8,39.23525873375276,91.99531637900176,12.114856181682585,33.77996710365506,0.9176278435628946,4.429531043713649,1.893191209451741,32.703766644219826,2.7599718733782095,1.3402819031265885
4.85,39.98316054641149,92.28355118029104,12.446173174987798,35.53229508771108,0.9109002140021037,4.485997481656433,1.881937985561101,32.53637061983314,2.780656558130842,1.395314816253733
4.9,39.95949076753129,92.25708135755515,12.0429960934039,34.962963080164066,0.9014658974610286,4.437146783930809,1.9372823762214268,33.13858309388537,2.6148139234773895,1.4290132167368526
4.95,40.13250175711002,92.40763793580533,11.977368270711509,34.36904746179134,0.9117999135410183,4.347021470417679,1.9239437442441776,33.05718306765671,2.6678186347032575,1.388891824476712
5.0,40.347619697716404,92.53337785031907,12.327333192111494,34.90088814638361,0.9072064210862575,4.388327365238269,1.9308927575963393,33.24632375282963,2.680006533591462,1.299397985514109
5.05,40.569391373442265,91.9691433143203,12.212034893213216,34.60335944989505,0.912258629373568,4.425291166805654,1.9383924297332564,33.7403954224204,2.689203104112357,1.2939964822879007
5.1,40.5435347994146,92.45866347758815,12.428620134090503,36.14051884915341,0.8909915939586166,4.376763383244066,1.9301238109900722,32.71576935251712,2.6178893967169627,1.2705718673795112
5.15,40.42590279012295,92.56411606761,12.848547347625887,35.38425499437337,0.8979406001115644,4.407047012032622,1.913586638032844,33.16078398414933,2.7080286294602183,1.2733636955313408
5.2,40.3702242197192,92.19947447925564,12.237035094640483,34.39591450640926,0.9134439026070548,4.396390052030745,1.9371144177043342,33.38220848557486,2.7009362187692423,1.2049349418516986
5.25,40.9215004143913,92.84355275285475,12.282371957508829,35.498067920343914,0.9049382781075321,4.390185084996384,1.9409508903059922,33.33816806078442,2.671180853379389,1.143584495011233
5.3,40.26509914416399,92.34164908568131,12.452019617251588,35.070187977556145,0.9107406004532802,4.462735559253991,1.944963764113902,33.27604017573165,2.6700776192145463,1.230573915113392
5.35,40.57358634968731,93.00282877702773,12.513316823033444,36.2723774631309,0.9266338388185369,4.410886547145795,1.976627874631729,32.53245778814956,2.5711978160561584,1.202781070577596
5.4,40.94673510866982,92.68966881406674,12.383205445877692,34.83191964974638,0.9045907010379162,4.378067068660221,1.9218337684733373,33.50645667061891,2.671946118109723,1.2587907390994677
5.45,40.601118553189934,92.74963088376109,12.381070219055369,34.27888845311588,0.910156666140098,4.399422846386796,1.9392995692009292,33.22069982436001,2.5740806837106716,1.2569023199911542
5.5,39.94187224515711,92.63308954343296,12.566515608079994,35.47932494001423,0.9024917548274805,4.439623683641065,1.9504122057835866,32.514763621972605,2.499468370590713,1.0903518310575815
5.55,40.68116481611588,92.80446393993094,12.533768356498477,35.31621450520645,0.9019657700600927,4.5461605291157285,1.9307629285146024,33.39647846458038,2.5882876668578114,1.0960439288568278
5.6,40.41120890666283,92.41778079279389,12.22681252900197,35.325622624984106,0.9074732801504809,4.455402897196284,1.91634382642327,32.93402716051328,2.591587649621359,1.1619263094234604
5.65,40.55234647986724,92.486981085993,12.42146932653119,34.506831509221264,0.8941172458743604,4.519242284645544,1.9302742894226392,33.58771048696692,2.5246115756919805,1.1657874265018546
5.7,40.92664927878484,92.27857438454859,12.44811785758075,35.834238454120026,0.8878561440240658,4.471783507876691,1.9647253622787766,33.04619856221495,2.464022910763178,1.1001519034438443
5.75,40.728911079698534,92.80363427052352,12.233915438053534,36.50073494316963,0.9218778517744283,4.341174740193865,1.9383403971780084,32.97189731757814,2.476924020680481,1.0814239829950096
5.8,40.58151339965351,92.57575470123862,12.500529008519003,34.75261113639161,0.9076075921871135,4.470329824878801,1.9573848773500573,33.3331528695294,2.5141040003608204,0.974972449618039
5.85,40.90352339816299,92.89195591067788,12.280715644481434,36.33566436414423,0.9196853622363066,4.410604112112136,1.930730627045905,32.87068243411845,2.382403704057194,1.156490314481532
5.9,40.859414689446574,92.8840631739961,12.650462932971644,35.50845329504976,0.909966610399863,4.387443596793904,1.9558948837446992,33.58819760558821,2.5470179947628644,0.9983467099100706
5.95,40.748712497797,92.51894418245351,12.498338299667907,37.009914749572296,0.9102898000377693,4.403376032947308,1.9338313331471846,32.549302156442316,2.5324645416661524,1.0428953217844275
6.0,40.822647725263245,92.951340924333,12.481386788716232,36.095856483449154,0.915439760383678,4.549418844822286,1.931348348040057,33.10831752872401,2.460189283121644,1.0166387883155261
6.05,40.80017882902762,92.88581150188377,12.349053018454876,35.82620960231927,0.9159477795481318,4.3821216291072105,1.9518632376856377,33.11598402793905,2.508243585439664,0.9418134278319578
6.1,40.66019496226387,92.8973155497613,12.447266719175568,36.51493963260027,0.8972016847773469,4.432225881415576,1.951550413288488,32.826023489500265,2.433433481250154,1.0097128829661948
6.15,40.56786529966836,92.97243205311125,12.075166192190968,36.2672164786337,0.9207918939634245,4.523505148157339,1.9816253440127694,32.743992061388646,2.3709870486287317,1.022896986088968
6.2,40.766302205401885,92.8979570851554,12.252157469842494,35.749763160632504,0.899514803427412,4.500519268961345,1.9189834236592316,32.86607813268002,2.444856098527523,0.93528856035175
6.25,40.55055060805006,92.92877664540829,12.554727157792492,36.44272276173169,0.910993031509773,4.382842290716767,1.9636479468019248,32.6873281085353,2.426856634364937,0.9288898160836172
6.3,40.37759690302961,93.16096484512668,12.060162718932796,35.87372260135721,0.9339765588777192,4.465027094889418,1.9871625653332687,32.82225652469574,2.3380922930343133,0.9378929959719631
6.35,41.28242979394387,92.77305783079036,12.658911430795365,35.27611476783568,0.90977268148805,4.4463556356380245,1.9829228985121738,33.788661960961385,2.2992426514082567,0.9378212257748828
6.4,40.73422005361805,92.75461465929625,12.144080675033093,37.2272738994068,0.9252546626547018,4.464145457999625,1.9479924257652512,32.40250133710975,2.305610161505655,0.9168407310868429
6.45,40.916511102923394,92.8662125993969,12.64835453322671,36.07763501298615,0.9055377398508809,4.513413309530024,1.9427579069705256,33.42990891047803,2.3977713796489457,0.8178070699521379
6.5,40.836369627646775,93.24931925507282,12.331610882274791,35.98869691016456,0.914891045150605,4.448163848077544,1.9474485695764367,32.91424309479418,2.3091278574021166,0.8004305245007762
6.55,40.96593349409003,93.00030105176701,12.660208530063693,36.50316975800299,0.9093401644306307,4.462588329173621,1.9646277449439902,32.965030661248846,2.4490177341221435,0.8035254510159139
6.6,40.95664081753275,93.47181252560844,12.534297121884897,35.59442396856004,0.9128599053296462,4.553625538606937,1.9631894299475583,33.35682486209336,2.2606166148031224,0.6861781586468056
6.65,40.91927783148939,92.49308723302548,12.20443297697471,35.73770699159212,0.9003556419018255,4.388864457279336,1.9673156253691915,33.0180680388593,2.3079060303655643,0.7368714919269308
6.7,40.78610618518109,92.99096928595742,12.765319291790114,36.20475352720512,0.899658930450444,4.464272647661135,1.9732567141610544,32.694077251368036,2.278026630969399,0.7759788657508243
6.75,41.331094383055785,93.06765975261796,12.80751701672076,36.2346195800254,0.9118170596820098,4.5080186365833,1.9398533559124438,33.4773239392462,2.234954947957247,0.7388369830426166
6.8,40.79953771264937,93.23433855702436,12.509697089782682,36.57015067614412,0.8931737484925588,4.42296312333683,1.9394801371252044,32.90890003910765,2.2717839480309276,0.7160486225658903
6.85,41.32507549151169,93.47117822662278,12.471753718304068,37.13503131450397,0.9000875280848488,4.455215501668071,1.9382660143338633,32.9838285923514,2.171291112763832,0.7841628534818882
6.9,40.45906596538275,93.18874853988815,12.49823887247476,36.376105166669,0.9144834049136188,4.422024168706372,1.9366950891216965,32.27911237066723,2.1950712653628535,0.7439147026760926
6.95,40.698966966796704,93.04528356745665,12.33885346002799,36.89870278291854,0.9020781305558578,4.497198140764958,1.962986067007974,32.503122524849665,2.123037432346398,0.7532340490965214
7.0,41.41311709110627,93.4400482889528,12.757269276269334,36.99207856404034,0.8992732210389028,4.459127732508463,1.9721942671919077,33.13543292436472,2.0563393229829776,0.6922188678702202
7.05,41.020261126550615,93.60573332993035,12.432637853385426,36.188087444298795,0.8969852748898052,4.531220182739194,2.018528365184269,33.23794998779474,2.1522394474519744,0.6668735385845983
7.1,40.897731760796226,92.80572458275924,12.534638763171133,36.882987558283006,0.9090882408940819,4.544063990228373,1.9782942907551246,32.95264787918776,2.0751896967822665,0.6321637379437692
7.15,41.19634744407033,93.45725567757226,12.389874436521971,36.3358749999277,0.90393295096613,4.495989696563095,1.9684626580055464,33.28532213282285,2.0508091390325656,0.67213939326464
7.2,40.79104496425299,93.42343689655179,12.426972209082978,37.37742043156078,0.908777037817618,4.475498821690124,1.997975934116717,32.61161567133498,2.128170199951302,0.5612506968799031
7.25,41.115692520745895,93.21996984154563,12.300291125934521,37.11109069597378,0.9052947288941412,4.50865197213089,1.9545443226355095,33.119133098400845,2.074384621392246,0.5933551101783396
7.3,40.54324631341906,93.31455412267616,12.810895536606592,36.929683795884685,0.9250125844467517,4.499312930660042,1.9773092243961705,31.972678605736245,2.085086884335857,0.6506772840503572
7.35,41.029181520481515,93.49087796900466,12.53230584219672,36.28927813904759,0.9024771385285545,4.435941297014652,1.9910475980143514,33.27339861404313,2.1354117535209185,0.6511614823033121
7.4,41.028054076310646,93.46146488007957,12.759945503973462,37.05462841027631,0.8874146868740423,4.551994215076878,1.9879255426912394,32.67081613081052,2.0413835480584352,0.5956932967711198
7.45,41.35987875900536,93.42885149804007,12.573060038482458,36.65043327131669,0.907445194788757,4.510135851310718,1.9807871273416067,33.28696252123857,2.038269979739563,0.5322167918620471
7.5,41.445278406845276,93.26761954089577,12.435144443007056,37.424049132091604,0.906104193042142,4.539185634837488,1.9660503269180816,32.96608483708362,1.9394785261865441,0.6031872831473448
7.55,40.953524923559755,93.58173481288644,12.512314191690917,37.04833148754718,0.9073698943693048,4.431510707177608,1.9484271195340992,32.50179431919833,2.0239448133830447,0.5298569389082912
7.6,41.695624748318316,93.4141924979369,12.469227169577575,36.7385545148843,0.8899311574244259,4.544876061711832,1.9714391514501097,33.25208790984458,2.007971789360666,0.5483903305694996
7.65,41.07024277569543,93.5876477724137,12.586483351519266,37.64402192638747,0.91638965587399,4.607402784323337,1.9630457990744739,32.61551313580782,1.8963423041569683,0.4977451799632216
7.7,40.62768946174351,93.47545981336117,12.51345230696995,37.578369814840336,0.9047731211898772,4.532819204020767,1.9900598405679568,32.1752856714737,1.9647444791095205,0.6208202951488798
7.75,40.5452790692043,93.65591114051125,12.53213144138804,36.95709517064949,0.9043878823311066,4.429190027023683,1.9737920314104698,32.55103562748324,1.9312794749228512,0.5954283278054298
7.8,41.689212715550006,93.78862196962176,12.320006899124987,37.87070019055336,0.8890856576550732,4.504534993257252,1.9887607463315058,32.846924769339786,1.8880248970158202,0.4744436011760782
7.85,41.2353786048638,93.70881894242156,12.437954618792956,37.176231650281615,0.9088498915785056,4.500080125950201,1.944878326491532,33.27876658235313,1.8863708512677353,0.45000691432741674
7.9,41.17688953970142,93.81631215836099,12.933733174744026,37.20639506399926,0.9032962836988325,4.514377264478844,1.998473911038471,32.7583386852852,1.9864568321269436,0.4944863496300534
7.95,41.06448506297653,93.42933528759225,12.472268750042774,37.45821147392023,0.9167995798988473,4.491896166906077,1.9616577075056423,33.00607003411396,1.8168399954908745,0.5185041958518657
8.0,40.95641836277099,93.82316107472607,12.399286207089002,37.05513137882746,0.8992580809270081,4.528903765314969,1.9477190050547402,32.551156953404956,1.816025559766757,0.5403664695879128
8.05,41.75571794486042,93.81107739344826,12.681155620858174,37.245561871997666,0.8909412836350591,4.480683047048718,1.9521411183769417,33.35826410832634,1.8214099953734684,0.47010344563499523
8.1,41.377752340057164,93.65016988182417,12.89872597781897,37.42087105696211,0.9039034064547294,4.515846075700459,1.9680835752522388,33.08902171587176,1.791060320355435,0.4063682366328002
8.15,41.83536276896631,93.7655093317203,12.330043630265912,38.3007754278453,0.893407900216003,4.4696514127599425,2.0045959152180455,32.59093666651553,1.6927954492157304,0.4726895345082503
8.2,41.29801730127515,93.26036868488941,12.582716818740348,38.31977542749797,0.90600538217045,4.509414187692874,1.9967639376009911,32.22658648003018,1.8001483635164948,0.4646892740606427
8.25,40.645049014866665,93.85986354455945,12.50157909551916,37.47462455570506,0.8910501674109419,4.554629717203994,1.9586434285067598,32.34588409127336,1.7978233210886359,0.3698816616231423
8.3,41.567429821316765,93.78454847477364,12.279349825185756,38.44317915661078,0.8999747219764757,4.479669804632098,1.9850463558602378,32.78781819797271,1.822373401968961,0.4275345904175025
8.35,41.312361529625456,93.43506911402298,12.782098847049527,37.65000814319844,0.8986484579897992,4.537969803459536,1.981673158966493,32.98230655937693,1.6920342779747566,0.4203343763260283
8.4,41.33000537137083,94.0136083805792,12.633980153636639,37.89542276666364,0.9001396375018792,4.459482795636069,1.9522219141975525,32.73216985295975,1.6415904105349264,0.3827276644883536
8.45,41.883509576579335,93.80683278010923,12.656508360990506,38.18019101415202,0.8950735111184462,4.485289000366868,1.964591295637493,33.135357433448014,1.7217695225459393,0.4354664697851812
8.5,41.309524166147,94.01310792436126,12.495304350723325,37.91748352766981,0.891786718489237,4.4919151527715995,1.9436583654019675,32.37683571700768,1.6223681731160038,0.47085303728920874
8.55,41.79334466049791,93.93228298000113,12.740265704880004,39.01189517547425,0.8986939917654101,4.566452103839788,1.9681182019052714,32.40375481470187,1.6582940292864803,0.46496611772848984
8.6,41.41116697964383,94.09977520714143,12.544987179161026,37.95860773037698,0.8932158519248484,4.464633881992569,1.9321222384260714,32.93857230375112,1.6231696942110323,0.3706555388869974
8.65,41.210365235871315,94.04288270458635,12.627799309599176,37.27055559685796,0.8999181460564817,4.564382181061548,1.9706561166967764,32.69942698580068,1.6379085497992125,0.38213517895079685
8.7,41.556736994351105,93.99056062179413,12.43825659634757,38.554285611013995,0.8953551950105195,4.428624102259042,1.9682629117345958,32.462747340310365,1.5913495075015096,0.44051195782453056
8.75,41.226978886337676,94.16970655200352,12.420212483286864,37.727501656156335,0.8757178199768463,4.494124211128752,1.9715980637759403,32.285345238460586,1.6339970307097742,0.38937106686177514
8.8,41.884449316807796,94.26039371736724,12.934059139837396,37.81315501456788,0.8965129809765457,4.547664017221228,1.9715316891380867,33.06364928308264,1.5387031214759006,0.3866867336482773
8.85,41.73668986787664,93.66208284008533,12.569046990098986,36.50101014311821,0.9101616257682199,4.536170110527787,2.0125777469202686,33.25561422213939,1.6894592513333382,0.5071432054492184
8.9,41.50572039025009,94.14407192992218,12.732314569195005,38.52866770173782,0.8991449457279695,4.449562244128107,1.9821896478838237,32.54934743422947,1.5953514590625402,0.27852062934096716
8.95,41.66283141318934,94.04212290860231,12.670726358514374,38.46850739578672,0.9015466452188825,4.43815983242472,1.9947182933185965,32.912415845698796,1.5112634779614458,0.36908504379454976
9.0,41.63868536956438,93.96217833535115,12.592756709056884,38.489679680433795,0.8996767282050027,4.543518512032565,2.0056804219414124,32.662003142063234,1.480660184510883,0.36007993944120287
9.05,41.38943886859743,94.46794487425427,12.582890192283271,38.610038217181106,0.8902116670464554,4.434843098198668,2.0090933328645924,32.38472020849579,1.506074105501649,0.3977900849359463
9.1,41.791436732165636,94.42153644789076,12.813990850015589,38.9967780588442,0.8813298386191939,4.527036382319165,2.004994248903692,32.4132611706315,1.4787419270900857,0.48244103421242324
9.15,41.42242912169794,94.04453180121074,12.631088040896412,38.158496249728145,0.9016338542954606,4.470670264767002,1.9801172033725043,32.686332445595035,1.4478955990797238,0.3950328640599928
9.2,41.686251571542904,94.05059992970348,12.664655323045535,38.68030034042174,0.9035029885208565,4.495568490085385,1.9693776237803269,32.33988471623966,1.546146430886233,0.3897755582704016
9.25,41.227743398774415,94.46071389152884,12.702866091926563,37.8693419802387,0.8982545822182826,4.612143781580789,1.9763059236641867,32.46755706255102,1.5124004305621739,0.4127602659102409
9.3,41.593891598208934,94.19378086912485,12.93719638544126,38.09390515091351,0.8963551425746044,4.5725973839828145,1.9829496159842472,33.1583722599524,1.3973817736200382,0.39291191884196197
9.35,41.67228930238953,94.27649838995963,12.84146504651285,38.82850292811842,0.8955414366132373,4.53575743485026,1.993102906122718,32.2238599189228,1.4674013313145136,0.4282098676953446
9.4,41.30278102789905,93.96957331252771,12.78534620084918,38.52477432153381,0.890911205561619,4.422770748683688,1.9916049487230956,32.21442046052865,1.428320557098896,0.5345410975369296
9.45,41.38069749715263,94.35984285078648,12.599570306135243,37.69136601739366,0.8932971506347959,4.5074122931004315,2.0161633650952187,32.48765782967834,1.4545185047781377,0.38376724222115605
9.5,41.316224866894615,94.63690143831846,12.439344396388119,38.56737036922809,0.8902120025229545,4.49283308754645,1.9919455965969977,32.549761045496794,1.3716559719271557,0.4107016846380765
9.55,41.79102473246295,94.33962818160443,12.90909277673092,38.32365209902291,0.8927013546874679,4.483918587306304,2.0311025645796827,32.75028529547399,1.500105683629297,0.4212792328513922
9.6,41.3602409462557,94.43084773257151,12.91591993799675,38.033946109446454,0.8798369226950357,4.555331299987939,2.0158062388273916,32.343054321121244,1.3867009864851423,0.3290090509009239
9.65,41.66606219415837,94.82628299766603,12.697927599268008,38.68836273897842,0.8823278608475938,4.399715637789148,1.9851574052273089,32.292001644341966,1.472026004007032,0.46332746800442876
9.7,42.02176797883932,94.67509935422414,12.837879838955939,38.296674081124216,0.8933484911802141,4.501340632711752,2.012953140548063,33.200864368672526,1.3384024681874458,0.4369140410406524
9.75,41.68310083714824,94.80690336950786,12.889220473022514,37.74115679928492,0.883995166097742,4.490326359319227,1.9367645511637808,33.10056355083055,1.419491913723243,0.35204126240109823
9.8,41.096476958992454,94.67050161932997,12.902592520955707,37.9980649622693,0.8633065253824248,4.444625132871092,2.024116438537533,32.54718723614142,1.3369901903899417,0.4390338003257437
9.85,41.62300375164669,94.806983645267,12.924051046350241,39.465234095508286,0.8873055755418441,4.568421165233109,2.0046150891565366,32.13006975242989,1.4162822500361447,0.4663451385620447
9.9,41.84389936465459,94.2560209257189,12.652064472516386,37.84995581197564,0.8634207421146157,4.4156391249803635,2.0045850652702186,33.2218013567122,1.3147921201468837,0.42273519758953804
9.95,41.525776028398916,94.4472653350859,13.049591156401862,38.74535659960796,0.9033639410348759,4.47959914685474,1.9622434168750238,32.647834116876226,1.2617492852263146,0.5246731708069174
10.0,41.834855880499155,94.30269890819794,12.500681388342858,38.965281994998534,0.8912456220902647,4.480691428863969,2.048553178996362,32.66394426670561,1.2528004113608449,0.4520146004382815
10.05,41.77249015632906,95.10104150568137,12.925742915113789,39.005909667532066,0.8901762139604775,4.364248829533613,1.9919868573961885,32.16207401426723,1.2665659135124119,0.417163344996355
10.1,41.69908665663868,94.71511433875017,12.85557785152868,38.09940228188259,0.8766686792495624,4.401112098791041,1.9944909253513026,32.44571045258208,1.320640661486001,0.5351263683380804
10.15,41.509704090564185,94.6760032800849,12.934903207471136,38.57695314567699,0.8715785203854862,4.422730137766104,2.0206798132597013,32.17871342690747,1.3015755604963082,0.4990198986638724
10.2,41.47451664266188,94.57231719655464,13.139363785044903,38.83349016300294,0.8797819070129367,4.50987896763525,1.9938825341809499,32.36651287830608,1.2814864740842504,0.5212525349474025
10.25,41.53527530551709,94.54268759675696,13.063828723791309,39.18827575685907,0.8813877096436585,4.516104286297239,1.9806386749134188,31.913530793544705,1.3216671200245982,0.4470375400930703
10.3,41.525251746124134,94.20693036625637,12.54127649664939,38.490554105042946,0.8731368243117243,4.496549354964572,2.01171434261797,32.302109275563375,1.3438429820210294,0.4677329262852089
10.35,41.64071815929454,95.2393282895532,12.435944531374,38.255919048574164,0.881443098345403,4.476795321574249,1.9776716294180434,32.71210114054759,1.205406753437484,0.4954655726293099
10.4,41.709112367869714,94.79611056211156,12.940418325870455,39.363322816892406,0.8858876810183416,4.351555723754033,2.0137862659492245,32.08531671190308,1.2998911469138015,0.5467348854448028
10.45,41.41808965082871,94.84747323433552,12.577394371767957,39.43874914954433,0.8843936874915568,4.471763720158879,2.0015649730183886,31.74853154297712,1.359661427881607,0.5582578107960536
10.5,41.566530989625456,94.57582697130414,12.781266769344422,39.095101519908184,0.8679678284196515,4.4328886539884405,2.021959666614094,32.450123316680774,1.2077585661459542,0.6415844000170345
10.55,41.69552576852735,94.86739844122265,12.955038962885757,38.62932030492955,0.8564920571385779,4.516114639695649,1.9742629100650555,32.67297630167219,1.205355470369337,0.6604295108898686
10.6,40.99036738944242,94.97734430541402,12.4616742230079,39.1604984301052,0.8766738086845736,4.522917744233635,2.024653267479477,31.93994611172108,1.249229902129149,0.604800445076834
10.65,41.22641334915171,94.9077453808551,12.371772410599391,39.03493110923909,0.869637051252628,4.565935587526449,2.005304225018848,32.20526614186133,1.2361602115043024,0.605750623623492
10.7,41.309405691727775,95.06996718733443,12.84895767334457,39.42200205211763,0.8795936346551849,4.486486730499799,2.039792962150147,32.19299378516771,1.1938220834316986,0.7130170491183777
10.75,41.47652268800079,94.80037851436437,12.809298951796077,38.40129636054315,0.8903967207831411,4.489696141178525,1.9861818652296448,32.50162819803158,1.213520596192457,0.637522178360628
10.8,41.44037807244908,95.055608754003,12.75457957819211,39.10640091072969,0.8897036620501498,4.394037455510373,2.0375884268837123,32.125549281534646,1.294217354442204,0.6955979690086898
10.85,41.45376009219172,95.19179580608318,12.81476005507233,38.990908218581595,0.8760121167938208,4.447988913176623,2.014078319804599,31.887062619640208,1.2565629408131247,0.636913148312866
10.9,41.2298027279179,95.14744376507126,12.638257359243028,38.53751923314698,0.8832176844644671,4.379153711742698,2.0158982260151985,32.20743954298959,1.1678187348263467,0.6683238266159868
10.95,41.66354105124624,95.1337782118319,12.510963423540256,39.22185689105863,0.8876595047968575,4.484753792525343,1.984940740101064,32.16568258375426,1.1205384625883656,0.6732635007839312
11.0,41.59490649665784,95.05870732780153,12.783627582346476,39.15291349436548,0.871629764988457,4.376529045660927,2.01129285801164,32.45955826449392,1.14870779285735,0.6668966984700976
11.05,40.982243024383564,94.90405328578565,12.62590746249808,38.95144659984011,0.8731002821008967,4.423718526480968,2.013622075838807,32.00335884961142,1.2114409105289283,0.7315537973062473
11.1,41.447658650386465,95.23447048784143,12.494837962514975,39.37556063178278,0.8779620154764355,4.390571538408183,1.9829563282241616,32.32512251064011,1.1619617954744947,0.6881548615285432
11.15,41.18694747241111,95.06755094711369,12.92794982315371,38.488816467852644,0.8687406595239622,4.405881253003022,1.9763095129562795,32.45053374316265,1.1582816303605679,0.7364483257462301
11.2,42.00781610849063,94.97896788611119,12.81780759818058,39.19181061929925,0.8635905252118303,4.45025065226904,1.9841792071904798,32.78795604175421,1.235878035046743,0.7756200770653373
11.25,41.37387397874683,95.34327097101313,12.914661056855966,39.45450240800236,0.8604766994958121,4.39596996901559,2.029909042384733,32.05018135536937,1.1854758901643057,0.8710646082817217
11.3,41.33106180354378,94.89046840016697,12.638758675184349,39.40071477716279,0.8670154822708964,4.433080107919322,2.0031952758100577,31.966868464741857,1.1807485159835416,0.6940549571637682
11.35,41.48184274827947,95.12268878109407,12.708262484958546,39.81657642996817,0.8602855768749096,4.368467855387236,2.019138399080361,31.79121862741475,1.2111134545075768,0.8032802772055041
11.4,41.377017027864746,95.411562179126,12.643316461334162,38.697208571791506,0.8731587522260168,4.48735944551083,2.005864243022882,32.291748531153914,1.2737802224030375,0.8459014813198846
11.45,41.41774841770079,95.46793039198228,12.669041738134101,38.562972063539114,0.8616063714022234,4.381250215145488,2.0022979480098573,32.20456080013647,1.21785026886674,0.8130704198970944
11.5,41.93623848853035,95.2256374615237,12.88869093893713,39.455338136001146,0.8780862589988866,4.462432854835741,2.004417863418594,32.456615029850205,1.2385888933426514,0.8862453192553292
11.55,41.49396568775955,95.33530899233274,12.696247852834407,39.58201657201668,0.8749382490975509,4.516685477240294,1.9914197449433317,31.96559812558814,1.2101124310556055,0.8852368726392337
11.6,41.715214858841776,95.45319333831303,12.927283609290702,40.432731791507344,0.8507622951038089,4.282025337743517,2.02473098589216,31.36385556707579,1.285760079883894,0.8985358213019051
11.65,41.79500577300325,95.35274196591764,12.927243244625206,39.69924875905057,0.8722287319021097,4.352387058165716,2.0032257285566977,31.639958477883354,1.149598767561081,0.8706304354289673
11.7,41.22437979497927,95.23422208101583,13.267540075440937,38.97183354085766,0.857306492118631,4.389320639529846,2.004201330230158,31.91132519093631,1.157825051649495,0.8958607443976552
11.75,41.87909888160746,95.49739479835736,12.587159975882487,39.82942977837267,0.8735322956485827,4.456155435247876,1.9711999047358584,32.07236545622249,1.1918036655502833,0.9108377151761833
11.8,41.66207427817303,95.4653212931478,13.046502234081027,39.02094862850145,0.8645972611284377,4.369288826875115,2.0057255323588903,32.31072454490644,1.3221930899994092,0.8900756179455087
11.85,41.6954584214527,95.47547106388497,12.854222184102062,38.71793561544734,0.8585190340572036,4.4100832740728775,1.9854870275501115,32.78120353441417,1.3020709753462465,0.9615365702795248
11.9,41.1438841353621,95.69936409283386,12.872505871007977,40.78223453995212,0.8646414375473805,4.350791626858475,1.9889264989254487,31.033812441335307,1.1743024794661325,0.9181451501959965
11.95,41.58199156417213,95.55959903149058,12.588525093918099,39.65716746611775,0.8521542844961179,4.4132840202781916,2.0202419550338644,31.769346707949552,1.2110102178361326,0.9398323018594216
12.0,41.49148744367616,95.42860324732712,12.78963911589378,39.868040478855136,0.8598795552237847,4.320053910024459,1.976565351738921,31.919063608689143,1.2664283411115564,0.9337906916895117
12.05,41.24530688093345,95.57465301414028,13.033491308345331,39.808389938884694,0.8596715999764271,4.420935895706519,1.994660078791177,31.876419373128424,1.2477711767888473,1.0682271317172143
12.1,42.0488893959526,95.95243563522617,12.871524093795367,40.44844167220753,0.8538471166802091,4.223477499621012,2.0114454010410854,32.31453321798352,1.2943310505519308,1.0044620557503672
12.15,41.530990498011036,95.44243261622995,12.90739246843531,39.69998340622084,0.8582022466962183,4.276111341427601,2.0219730536454943,31.75929591237171,1.2314393227134397,1.0047684098892316
12.2,41.26440946487175,95.55501604417222,12.836193976328314,40.18204399166047,0.8442254835614277,4.461222598765166,1.9876380169236423,31.477256609959955,1.179565450816692,1.1005394889900881
12.25,41.44214727484233,95.46943361972544,13.128400850253245,39.07455542368292,0.8583372526325592,4.374322874115981,2.0045810164446842,32.09062699697563,1.2998914443844745,1.0583291108794792
12.3,41.59965877073247,95.72218589976016,12.896335824580127,38.90685636149538,0.8407166911166393,4.31676522426961,2.003693179313372,32.66072452945606,1.338511619463649,1.1097950215292711
12.35,41.56795347701955,95.42087266630367,12.46368446780576,40.33069160061591,0.8574651682523379,4.47086698034372,1.9745565186091576,31.821631633484472,1.206531893879577,1.100780857684685
12.4,41.45292554268769,95.78448406772009,12.768484162198664,40.369055527181075,0.855278842541073,4.408934144929784,1.953664318162432,31.58648287501613,1.1970925693939778,1.141912374773464
12.45,41.58151623072694,95.86893866854344,12.516264205086951,39.90093709223476,0.8567887119865266,4.409506787525794,1.9577777092002706,32.03774006392513,1.276207372375966,1.1490768202665527
12.5,41.59483855359797,95.58381658158982,12.262854460413774,39.77229151475133,0.8439718581276237,4.327225542031192,2.009218433279714,31.90028330179025,1.2137251927251331,1.052057869033588
12.55,40.8807427123534,95.59071736973807,12.810231431994692,39.755765825085184,0.8774677998406707,4.376832722570361,1.9988006892612684,31.388474634962996,1.3370808229581042,1.2404156963892334
12.6,41.16831016405064,95.48456065132989,13.18607255050001,39.34175089706914,0.8456382794250357,4.367515542422273,1.9690491938620194,31.831189338604585,1.2665486131700852,1.2332055021652406
12.65,40.96875684193401,95.81248794473592,12.931884339041416,40.46803910284067,0.8485000159211867,4.253866466062935,1.983097597708041,31.070750935212256,1.370635983261027,1.1307230138714475
12.7,41.21884551994106,95.60165747167801,12.691044671230127,40.040783206512266,0.8391253059252185,4.364826123679254,1.987729902679629,31.507200747814437,1.3258584126954516,1.2574457944547803
12.75,41.61952474633187,95.72223751065903,12.740500950324266,39.976651926227866,0.8591895472893287,4.321649124641122,1.988300606444721,31.9599081684401,1.3593588146002282,1.2187504525610267
12.8,41.45273198857094,95.7849195810211,13.157844316467466,39.923851662467506,0.8403428768351472,4.392900268306495,1.9947047195081997,31.83503289775826,1.3957912696098642,1.2494980989013464
12.85,40.89131557131711,95.75289154369914,12.966321355633868,40.271568352590656,0.8535395828873888,4.390267894371639,2.040136183369262,31.48231845538439,1.36283120202444,1.319442050238827
12.9,41.09947183535659,96.07924140937088,12.94746383281597,40.01167026931941,0.8343499084792554,4.287358378565267,1.9787201791777784,31.642447011477287,1.33285311609543,1.3197608829227951
12.95,41.47876748839973,96.25325248925124,12.93023315227059,40.14313562914823,0.845552767662932,4.285632666804946,1.997306901227852,31.692218419399826,1.4401027890847415,1.3327967081101542
13.0,41.00090939754263,95.52972351378813,12.951660638885826,39.197010569900776,0.838331632887976,4.322407488048496,1.9783057764656786,31.35310210613917,1.3319573342526545,1.3956478921698592
13.05,41.148264216478424,95.81471519143872,13.108110322562828,40.047244605449556,0.8499767053497599,4.342258840498669,1.9808532075414949,31.214115176870802,1.4871495529474164,1.365374185376545
13.1,41.24451417219106,96.04889561157695,13.060584768412541,40.896312501746465,0.8376172841576504,4.284148333742462,1.975354494623642,31.078229469171962,1.3979643831630055,1.2980777984656924
13.15,40.579052835547316,95.81006444540425,12.99624785303111,39.553665137297926,0.8314412657425748,4.295451519848993,1.9882771329995965,31.211941486616702,1.4138847528455905,1.2788462027559964
13.2,41.29461634145254,95.9347863759054,12.747562313105034,39.758458073083276,0.8432075875111905,4.328567030690654,1.9813180234141776,31.491965471054396,1.4721019214613473,1.3925096819400602
13.25,41.21095457637328,96.10561813079752,13.061380255952823,40.27852093009456,0.8268406618166804,4.315122551336829,1.999376185861386,31.36577809902931,1.485554555480956,1.2837121143113774
13.3,41.216148789786004,96.36358282778869,12.825325031755238,40.32060766249527,0.8283526708278783,4.3489521600651955,1.9961970059202896,31.443622433731317,1.502571065643612,1.360839755038747
13.35,40.80804650851474,96.34170357003227,13.183952932280764,40.16330680754396,0.8440100110991265,4.29790579158687,1.9731953388873127,31.06175352378339,1.4166967803203239,1.3724758359634233
13.4,40.76136541157892,96.06982469443857,12.7139763672411,39.051160239129835,0.8182146242482523,4.236550552286326,2.0302312894517223,31.624275420518398,1.4590505973122851,1.3679349907636495
13.45,40.8425517953022,96.17594686820557,12.943658434973985,40.119422301427,0.842472306221057,4.187824400050758,1.9667221257884329,31.211132909245727,1.533438959847137,1.4774935898447799
13.5,41.08627022562539,96.09866686992586,12.972700415237021,39.285046148521296,0.8307338301714355,4.315204671172919,1.9974618610509136,31.662972384058293,1.5483657683609335,1.4395230565155976
13.55,40.96359024192215,96.15783074889956,12.712225727766313,39.472587908934486,0.825128862116394,4.252761523245327,2.0340789390240666,31.452179950985546,1.53882054915048,1.4244902251518239
13.6,41.08656169982403,95.97938004950937,13.324525234756454,40.1667502227491,0.835415111696066,4.247975836816724,1.9747379613788996,31.368717138641195,1.6219982456781974,1.4885131291048737
13.65,41.55892561698797,95.88169317659707,13.275181609819603,39.75232451538554,0.8383767400830799,4.246867754661351,2.0159537660911067,31.99831417501484,1.562539383776316,1.436708327800889
13.7,41.3195431916231,96.1836345079213,12.893346116369326,40.31228986123833,0.8261261977208341,4.177271485494879,2.017404496046861,31.30424424583402,1.6326400049709566,1.5234439148876622
13.75,40.7448445828967,96.47404304669605,13.143362955763008,41.48851794061353,0.829288435954521,4.233482329629815,1.9948417707513955,30.12704428357356,1.6542818335647471,1.5733348487177208
13.8,40.73181219342405,96.45272250586096,13.06770301191952,40.30973703833675,0.8378393106805677,4.116357409022314,1.9496657823870562,30.873293210206498,1.6320245766448114,1.4791913862552555
13.85,41.30571993277781,95.94825497282444,12.472198181815584,40.28899974580169,0.8366851662653144,4.22457101553315,2.0159726777818796,31.59970362362485,1.6197889144108482,1.4866178554082945
13.9,40.79309245287695,96.30420920323536,13.04792513523706,39.48586391652529,0.8283621353961897,4.1951887819599785,1.9883371471604507,31.17023767581346,1.68133676030287,1.5580354230517897
13.95,41.27178650120828,96.23845269946831,12.98850533439025,39.618127417835886,0.8208523788452855,4.330687748974043,1.9747610539729656,31.964028988682955,1.6818539877942214,1.4182299171429753
14.0,41.325722434262744,96.44300256515872,13.020339380233192,39.41338801040718,0.8184926366906462,4.2553743524434235,2.0114984604881023,31.810678074050262,1.7056856621441814,1.4598753448271085
14.05,40.619044997124426,96.18719291667497,12.791235805534859,39.684257781349174,0.8211189763826663,4.217338879278869,1.970082217790335,31.27832481736965,1.6468748321831284,1.4783743193908407
14.1,40.71502254262578,96.6107330693757,12.955649361020578,39.409743618065754,0.8325070539613694,4.232303101406517,2.0061124094139102,31.30447293053829,1.728955431467926,1.4576083783018148
14.15,40.80598038137178,96.40821478351698,12.97676807922395,39.63056564557464,0.8308568001720302,4.257016716170681,1.9726055540129277,31.533294813875692,1.800903676671427,1.54129978730799
14.2,40.55807819675613,96.58590883835605,13.252932797966455,39.86056767483604,0.8275889241045139,4.176688376105625,1.9942069795104052,31.136634849081958,1.7229534911626854,1.5621613943747767
14.25,40.470926010223955,96.66709995168274,13.085086530377616,39.468886403345344,0.8372054406011915,4.199302046780347,1.96069761415856,31.3073258373944,1.7598991261714034,1.5529196871101139
14.3,40.611357859445064,96.12484962647116,13.019970297397844,39.263596221763365,0.8205273738163322,4.188565659029365,1.9740278078574445,31.066067556680366,1.7570725171627224,1.55873175443033
14.35,41.02974194701339,96.49092731781144,13.329748489782604,39.29611102606725,0.819104296514419,4.329561691694027,1.9628270697130459,31.884135554654012,1.829085507654617,1.6090638554935126
14.4,40.53683928135454,96.85813457444449,12.915771072940304,40.20722784047958,0.8183909295984304,4.2017034878331705,1.9664044576245248,30.63199708196338,1.6983978806929074,1.6216276219947565
14.45,40.59639487443722,96.58081752187088,12.951793728896748,40.013291431821266,0.839443115082886,4.092872466886054,1.984165530133456,31.02297606072033,1.8972876483402645,1.6343640368548558
14.5,40.441887857276114,96.80656141531651,12.66918086127282,40.499265511703165,0.8012709367599962,4.229978254001049,1.9762472214075997,30.845237066219447,1.8594913741051113,1.5726849701308672
14.55,40.28751563037384,96.70342146089428,13.34919802960838,40.5111183588533,0.8228153126645824,4.317250628336495,1.9829679305687289,30.586891334539878,1.8390942389540477,1.5841784982990679
14.6,41.097973268267395,96.54074516163436,13.231081234444495,39.82090884001313,0.8236394138638031,4.131264877676299,2.0047064475152427,31.65419852405738,1.880561182674658,1.6568849132110985
14.65,39.92778871498673,96.71781988917235,13.224415154354183,40.32830572498883,0.8193684650336065,4.354146729002556,1.9755235280332935,30.464631258956054,1.9396787283394588,1.6094045883130212
14.7,40.403832187576626,96.89293105228805,13.17764888417786,39.27480533037804,0.8402068264823562,4.168106900134938,1.939223240553751,31.288318319066814,1.9185875661377045,1.6552950210896282
14.75,40.72465078160219,96.96151149310396,13.068715407295251,41.13808501827476,0.8285799012684687,4.21813794854304,1.970686515482452,30.51022100757345,1.9502136981891927,1.5721787747476894
14.8,40.12164024383857,97.0143262818846,13.092592798606514,40.59550898434244,0.8241733198993167,4.1333845282224715,1.9775481801606454,30.650162801451657,1.9934061254928237,1.5944665872797052
14.85,40.68208185789642,96.52448916193502,13.001895820602822,39.89124962722931,0.8077900689508667,4.14394494687648,1.996050819022957,31.421193597287505,1.9586715536476944,1.567530001925905
14.9,40.857077807761115,96.93259579384689,13.014371969071167,39.41785197660341,0.8203571238512161,4.0900552033440505,1.9956841498944389,31.45498770948956,2.003934189145376,1.5980526792607939
14.95,40.21237712305202,96.51271896401626,13.068740460635166,40.189887211075245,0.8115357673440446,4.094446351567763,1.9932941625023775,30.541777779124583,2.0572396848643684,1.619955525077105
15.0,40.569585624607804,96.78298521682375,13.363026074092577,39.06496323575834,0.8148592464889741,4.034075228827135,1.9685394817291275,31.53177701240318,2.028546939244301,1.5785706445184982
15.05,40.11384372082026,96.7882583783098,13.174570915982775,39.61021170442109,0.815736397944314,4.198276709398959,1.985668136259291,30.75335377177833,1.986388278622147,1.6930091565947158
15.1,40.55256781573548,96.97635771049055,13.054507185657716,40.37383047315738,0.8087030435852319,4.075945646429575,1.9423091192003459,30.91389371945079,2.0725437063678482,1.528398365260666
15.15,40.38402332739596,96.93486413326178,12.953079368299129,40.03649082486363,0.8186272343347469,4.149357961742144,1.997460555017084,31.068041908271628,2.152346794830134,1.6392062339937015
15.2,40.39766331822748,97.1423975822753,12.944709321966874,39.75232446932662,0.8274516003771587,4.1426668543395895,1.9792805140940293,31.17780132623987,2.0516925881832777,1.5448443656304123
15.25,40.80991001576101,96.79136861983415,13.394993917371478,40.47194303932401,0.8212721314614857,4.08772062631481,1.9799653979342833,31.319169032431855,2.1068506709238375,1.6088539773854555
15.3,40.474953601886966,97.10306079577887,13.178526907490205,39.47574859820995,0.8129742833898947,4.118894460226927,1.9611043212194972,31.32329795294528,2.1222616050089838,1.5558332378685926
15.35,40.69704253745383,97.03360404983422,13.09342870687886,40.13563424570095,0.7921588467417401,4.1069174087235565,1.969236876724026,30.909114011876845,2.1615574180807613,1.5932605626365748
15.4,40.444002825098885,96.97697713109267,13.013403973716999,39.742285550320595,0.820054741407048,4.0816513854170555,1.9536750771797964,30.929568555978193,2.113688339543723,1.5901822632319351
15.45,39.84024316752312,96.75757854424674,12.863543986442568,39.565213521211504,0.8194163490513824,4.105002899657854,1.9781398958973215,30.807455902760047,2.149620447912241,1.5452395947253796
15.5,40.29697219072031,97.13208079461675,13.074689245024452,40.21799322752095,0.8068974135729602,4.100376805829445,1.938659605921262,31.125582220536884,2.2643009873851248,1.5213827230411878
15.55,40.37958714729987,97.10201391286581,13.26549259369615,39.486978449074996,0.8036813958066471,4.040600445605998,1.984851894485335,31.089500589329198,2.217872326267544,1.5412354661860903
15.6,39.7248157511743,97.2172089232615,13.01494549176462,40.931270508655174,0.813848330951023,4.021700868975076,1.9753244356845898,29.83139282793509,2.1689478892154064,1.571447897837137
15.65,40.54141490648582,97.07285828991337,13.050688884457987,39.684484365622055,0.7994994009354011,4.0400063696668305,2.004782249492653,31.457079542047094,2.2551394986615727,1.6040129907032263
15.7,40.13810984485893,97.05021041625221,13.054607477893272,40.96805476373205,0.8141000778007134,4.085196280995327,1.9618178087501936,30.276648947153628,2.235132875059266,1.6364201448378348
15.75,40.217286664798074,97.1998777168954,13.123402637753161,39.42218794266969,0.7959237744440725,4.14543160271462,1.9598911678680455,31.19197696462334,2.324454363136243,1.472274570772141
